,id,Address,City,State,Zip,link,name,Latitude,Longitude,FeatureMatchingResultType
0,9397,"2221 E. NORTHERN LIGHTS, SUITE 120",ANCHORAGE,AK,99508.0,http://chartercollege.edu/,CHARTER COLLEGE,61.196222399999996,-149.8397017,Success
1,8139,156 COLLEGE ROAD,SOLDOTNA,AK,99669.0,http://www.kpc.alaska.edu/kpc/,KENAI PENINSULA COLLEGE,60.4861147,-151.1279929,Success
2,9664,117 BENNY BENSON DRIVE,KODIAK,AK,99615.0,http://www.koc.alaska.edu/,KODIAK COLLEGE,57.8076993972596,-152.367891207214,Success
3,8578,8295 E COLLEGE DR,PALMER,AK,99645.0,http://www.matsu.alaska.edu/,MATANUSKA-SUSITNA COLLEGE,61.5794069226687,-149.243216813988,Success
4,7154,"EIELSON AIR FORCE BASE, EDUCATION CENTER, 2631 WABASH AVE. ROOM 204",EIELSON,AK,99702.0,http://www.uaf.edu/,UNIVERSITY OF ALASKA,64.653581,-147.08501299999998,Success
5,9043,"3901 OLD SEWARD HIGHWAY
UNIVERSITY CENTER, ROOM 112",ANCHORAGE,AK,99503.0,http://www.uaa.alaska.edu/advising-testing/testing-and-assessment/index.cfm,UNIVERSITY OF ALASKA,61.193435,-149.88806200000002,Success
6,9349,"314 S. CHANDALAR ST.GRUENING BLDG., ROOM 211",FAIRBANKS,AK,99775.0,http://www.uaf.edu/testing/,UNIVERSITY OF ALASKA,64.81712900000001,-147.878379,Success
7,8312,UAF CTC 604 BARNETTE STREET,FAIRBANKS,AK,99701.0,https://www.ctc.uaf.edu/,"UNIVERSITY OF ALASKA FAIRBANKS, COMMUNITY AND TECHNICAL COLLEGE",64.83629599999999,-147.715406,Success
8,7373,4391 NEELY RD,FORT WAINWRIGHT,WA,99703.0,http://www.ctc.uaf.edu/,"UNIVERSITY OF ALASKA FT WAINWRIGHT, COMMUNITY AND TECHNICAL COLLEGE",64.82198299999999,-147.635602,Success
9,8295,2600 SEVENTH AVENUE,KETCHIKAN,AK,5798.0,http://www.ketch.alaska.edu/,UNIVERSITY OF ALASKA SOUTHEAST,61.32535000000011,-154.56505,Success
10,7870,11066 AUKE LAKE WAY,JUNEAU,AK,99801.0,http://www.uas.alaska.edu/,UNIVERSITY OF ALASKA SOUTHEAST - JUNEAU,58.38293589999999,-134.63942319999998,Success
11,7105,7801 E. 32ND AVENUE,ANCHORAGE,AK,99504.0,http://www.wbu.edu/colleges-in-anchorage/,WAYLAND BAPTIST UNIVERSITY,61.19177710000001,-149.733915,Success
12,9234,4900 MERIDIAN ST,NORMAL,AL,35762.0,http://www.aamu.edu/,ALABAMA A&M; UNIVERSITY,34.792912,-86.569,Success
13,9048,300 NORTH BEATY STREET,ATHENS,AL,35611.0,http://www.athens.edu/,ATHENS STATE UNIVERSITY,34.8059701209347,-86.96746699649559,Success
14,7200,"ARMY EDUCATION CENTER , BLDG 3222",REDSTONE ARSENAL,AR,35898.0,http://www.ccis.edu/nationwide/redstone/,COLUMBIA COLLEGE,34.628935999999996,-86.651129,Success
15,8036,5345 ATLANTA HIGHWAY,MONTGOMERY,AL,36109.0,http://www.faulkner.edu/,FAULKNER UNIVERSITY,32.384109499999994,-86.21643449999999,Success
16,8321,7000 ADVENTIST BOULEVARD,HUNTSVILLE,AL,35896.0,http://www.oakwood.edu/,OAKWOOD COLLEGE,34.751130823499,-86.6543662661342,Success
17,8812,"SHARP-DEAN SCHOOL OF CONTINUING STUDIES, INC",1910 NOBLE STREET,NO,2101.0,256-238-0466,"SHARP-DEAN SCHOOL OF CONTINUING STUDIES, INC",0.0,0.0,Unmatchable
18,8605,4000 DAUPHIN STREET,MOBILE,AL,36608.0,http://www.shc.edu/,SPRING HILL COLLEGE,30.6974331,-88.1367365,Success
19,8693,"4955 CORPORATE DRIVE, SUITE 200",HUNTSVILLE,AL,35805.0,http://www.strayer.edu/,STRAYER UNIVERSITY,34.732078,-86.6562253,Success
20,8430,"3570 GRANDVIEW PARKWAY, STE 200",BIRMINGHAM,AL,35243.0,http://www.strayer.edu/,STRAYER UNIVERSITY,33.4386957,-86.7174831,Success
21,9462,301 SPARKMAN DR. NW WILSON HALL ROOM 202,HUNTSVILLE,AL,35899.0,http://www.uah.edu/pcs/testing-certification-services,THE UNIVERSITY OF ALABAMA IN HUNTSVILLE,34.730919,-86.64138740000001,Success
22,9344,100 UNIVERSITY PARK,TROY,AL,36082.0,http://www.troy.edu/,TROY UNIVERSITY,31.8003370357243,-85.96387591062108,Success
23,8627,"231 MONTGOMERY STREETWHITLEY HALL, ROOM 431",MONTGOMERY,AL,3507.0,http://www.troy.edu/,TROY UNIVERSITY,32.3472436864462,-86.2672601973856,Success
24,9402,501 UNIVERSITY DRIVE,DOTHAN,AL,36303.0,http://www.troy.edu/,TROY UNIVERSITY,31.254240000000003,-85.3989,Success
25,7187,4502 KINGSMAN STREET,FORT RUCKER,RU,36362.0,http://www.troy.edu/,TROY UNIVERSITY,31.348834999999998,-85.71936600000001,Success
26,9348,"205 STUDENT SERVICES CENTER, 801 CAMPUS DRIVE",TUSCALOOSA,AL,108.0,http://www.ua.edu/,UNIVERSITY OF ALABAMA,33.2330833,-87.5257979,Success
27,9948,"936 BUILDING, 170 2ND AVENUE SOUTH",BIRMINGHAM,AL,1150.0,http://www.uab.edu/testing/,UNIVERSITY OF ALABAMA AT BIRMINGHAM,32.6350164157569,-86.80937930824891,Success
28,8619,"1 HARRISON PLAZATHE COMMONS BUILDING, ROOM 214",FLORENCE,AL,35634.0,http://www.una.edu/,UNIVERSITY OF NORTH ALABAMA,34.799673999999996,-87.675698,Success
29,7354,"20 NORTH PINE STREET, BUILDING 501",MAXWELL AFB,AF,36112.0,http://www.wbu.edu/,WAYLAND BAPTIST UNIVERSITY,32.36658,-86.29998,Success
30,7125,"1490 VANDENBERG BLVD, SUITE 115",JACKSONVILLE,AR,72099.0,http://www.asub.edu/academic_programs/support/registrar/,ARKANSAS STATE UNIVERSITY - LRAFB CENTER,34.8881997072355,-92.121105862313,Success
31,8587,"UNIVERSITY TESTING, 1605 COLISEUM DRIVE, DOC BRYAN SUITE 171",RUSSELLVILLE,AR,72801.0,http://www.atu.edu/,ARKANSAS TECHNICAL UNIVERSITY,35.282948,-93.138428,Success
32,8819,"1100 HENDERSON STREET, PO BOX 7650",ARKADELPHIA,AR,71923.0,http://www.hsu.edu/,HENDERSON STATE UNIVERSITY,34.125615501666495,-93.059767653565,Success
33,9667,"2807 AJAX AVENUE, SUITE 200",ROGERS,AR,72758.0,http://www.jbu.edu/,JOHN BROWN UNIVERSITY,36.29463320000001,-94.16348149999999,Success
34,8066,2000 WEST UNIVERSITY,SILOAM SPRINGS,SP,72761.0,http://www.jbu.edu/,JOHN BROWN UNIVERSITY,36.188068762031,-94.55956280908029,Success
35,8313,"1401 S. WALDRON ROAD, SUITE 201",FORT SMITH,SM,72903.0,http://www.jbu.edu/,JOHN BROWN UNIVERSITY,35.3682795,-94.3721103,Success
36,8299,"8114 CANTRELL ROAD, SUITE 250",LITTLE ROCK,RO,72227.0,http://www.jbu.edu/,JOHN BROWN UNIVERSITY - LITTLE ROCK CENTER,34.7773196,-92.3645681,Success
37,7930,101 COLLEGE DRIVE,HOT SPRINGS,SP,71913.0,http://www.npcc.edu/,NATIONAL PARK COLLEGE,34.513331483791596,-93.1210883481919,Success
38,9798,ONE COLLEGE DRIVESTUDENT CENTER 306,BENTONVILLE,AR,72712.0,http://www.nwacc.edu/,NORTHWEST ARKANSAS COMMUNITY COLLEGE,36.375647,-94.209338,Success
39,8790,"100 EAST UNIVERSITY STREET, P.O. BOX 9371",MAGNOLIA,AR,71754.0,http://www.saumag.edu/,SOUTHERN ARKANSAS UNIVERSITY,33.2889063599756,-93.23695490813749,Success
40,7949,"10825 FINANCIAL CENTRE PARKWAY, SUITE 400",LITTLE ROCK,RO,72211.0,http://www.strayer.edu/,STRAYER UNIVERSITY,34.747337,-92.39603740000001,Success
41,8701,"TESTING SERVICES, 1435 W WALTON ST, 1 UNIVERSITY OF ARKANSAS",FAYETTEVILLE,AR,72701.0,http://test.uark.edu/,UNIVERSITY OF ARKANSAS,36.050940000000004,-94.1364,Success
42,9448,"2801 S. UNIVERSITY AVENUE, SSC 315",LITTLE ROCK,RO,72204.0,http://www.ualr.edu/testing/,UNIVERSITY OF ARKANSAS - LITTLE ROCK CAMPUS,34.7212472,-92.34039399999999,Success
43,7257,"201 DONAGHEY AVENUE, TORREYSON WEST 315",CONWAY,AR,72035.0,http://www.uca.edu/ubulletin/02/204.html,UNIVERSITY OF CENTRAL ARKANSAS,35.078332355208204,-92.4543189935312,Success
44,9943,"1130 E UNIVERSITY AVE, SUITE 204",TEMPE,AZ,85281.0,http://www.asu.edu/uts/,ARIZONA STATE UNIVERSITY,33.4221226443853,-111.92164837042299,Success
45,8475,2020 SOUTH AVENUE 8 E,YUMA,AZ,85366.0,http://www.azwestern.edu/,ARIZONA WESTERN COLLEGE,32.686728,-114.591916,Success
46,9594,2555 E CAMELBACK ROAD SUITE 250,PHOENIX,AZ,85016.0,https://www.ashford.edu/,"ASHFORD UNIVERSITY - PHOENIX, AZ",33.508358,-112.0255712,Success
47,8143,901 N. COLOMBO AVENUE,SIERRA VISTA,VI,85635.0,http://www.cochise.edu/,COCHISE COLLEGE,31.528599,-110.2598,Success
48,9345,4190 WEST HIGHWAY 80,DOUGLAS,AZ,85607.0,http://www.cochise.edu/testing,COCHISE COLLEGE,31.3638663261762,-109.692039744338,Success
49,7202,ARMY EDUCATION CENTER,FORT HUACHUCA,HU,85613.0,http://www.cochise.edu/,COCHISE COLLEGE,31.551784,-110.34723100000001,Success
50,7837,2149 W. DUNLAP AVENUE,PHOENIX,AZ,85021.0,http://www.devry.edu/,DEVRY UNIVERSITY,33.5657079322947,-112.10480151152399,Success
51,9901,MESA COMMUNITY COLLEGE,1833 W,SO,,http://www.mc.maricopa.edu/,MESA COMMUNITY COLLEGE,0.0,0.0,Unmatchable
52,8589,9414 NORTH 25TH AVENUE,PHOENIX,AZ,85021.0,http://www.ottawa.edu/,OTTAWA UNIVERSITY,33.5721194,-112.1132925,Success
53,9280,1255 NORTH STONE AVENUE,TUCSON,AZ,85709.0,http://www.pima.edu/,PIMA COMMUNITY COLLEGE,32.237682899999996,-110.9728777,Success
54,7152,5355 E. GRANITE STREET,DAVIS MONTHAN AFB,MO,3009.0,http://www.asub.edu,PIMA COMMUNITY COLLEGE,38.3088593907541,-92.50820580553619,Success
55,8881,12535 W SMOKEY DR,SURPRISE,AZ,85378.0,http://www.riosalado.edu/,RIO SALADO COMMUNITY COLLEGE - LIFE LONG LEARNING CENTER,33.6374605055568,-112.33000812170499,Success
56,7153,"56TH MISSION SUPPORT CENTER (BUILDING 1150) ROOM 3138,7383 NORTH LITCHFIELD ROAD",LUKE AFB,AF,85309.0,http://www.riosalado.edu/,RIO SALADO COMMUNITY COLLEGE - LUKE AIRFORCE BASE,33.538315999999995,-112.370171,Success
57,9931,2323 WEST 14TH STREET,TEMPE,AZ,85281.0,http://www.riosalado.edu/,RIO SALADO COMMUNITY COLLEGE - TEMPE CAMPUS,33.4128717370293,-111.974358186096,Success
58,9350,"220 W. 6TH STREET, ROOM B116",TUCSON,AZ,85719.0,http://www.arizona.edu/,UNIVERSITY OF ARIZONA - TESTING CENTER,32.227968,-110.9762176,Success
59,8231,THIS TESTING LOCATION ONLY ACCEPTS CREDIT CARD FOR THE ADMINISTRATION/PROCTOR FEE PAYMENT. THIS FEE IS NON-REFUNDABLE. 1625 W. FOUNTAINHEAD PARKWAY,TEMPE,AZ,85282.0,http://www.phoenix.edu/,UNIVERSITY OF PHOENIX - MAIN CAMPUS,33.39087,-111.925598,Success
60,9057,"THIS TESTING LOCATION ONLY ACCEPTS CREDIT CARD FOR THE ADMINISTRATION/PROCTOR FEE PAYMENT. THIS FEE IS NON-REFUNDABLE.2550 WEST UNION HILLS DRIVE, SUITE #100",PHOENIX,AZ,85027.0,http://www.phoenix.edu/,UNIVERSITY OF PHOENIX - NORTHWEST LEARNING CENTER,33.82895,-112.1217,Success
61,9106,"THIS TESTING LOCATION ONLY ACCEPTS CREDIT CARD FOR THE ADMINISTRATION/PROCTOR FEE PAYMENT. THIS FEE IS NON-REFUNDABLE.9520 WEST PALM LANE, SUITE #150",PHOENIX,AZ,85037.0,http://www.phoenix.edu/,UNIVERSITY OF PHOENIX- WEST VALLEY LEARNING CENTER,33.494054999999996,-112.254448,Success
62,8248,300 S CRAYCROFT RD,TUCSON,AZ,85711.0,http://www.phoenix.edu/,UNIVERSITY OF PHOENIX - WILLIAMS CENTRE LEARNING CENTER,32.2177848,-110.8759345,Success
63,8978,899 E. PLAZA CIRCLE,YUMA,AZ,85365.0,http://www.phoenix.edu/,UNIVERSITY OF PHOENIX - YUMA LEARNING CENTER,32.704390000000004,-114.61122590000001,Success
64,8214,"2702 NORTH 3RD STREET, STE 1050",PHOENIX,AZ,85004.0,http://www.wbu.edu/colleges-in-phoenix/,WAYLAND BAPTIST UNIVERSITY,33.4778916,-112.07056659999999,Success
65,9204,"140 METHUSA AVE., BLDG 2453",EDWARDS AFB,AF,93524.0,http://www.amu.apus.edu,AMERICAN PUBLIC UNIVERSITY SYSTEM - EDWARDS AFB NTC,34.919545,-117.946773,Success
66,8704,400 CORPORATE POINTE,CULVER CITY,CI,7615.0,http://www.antiochla.edu/,ANTIOCH UNIVERSITY - LOS ANGELES,0.0,0.0,ExceptionOccurred
67,9182,8620 SPECTRUM CENTER BLVD,SAN DIEGO,DI,92123.0,http://www.ashford.edu,ASHFORD UNIVERSITY - SAN DIEGO,32.827181825488,-117.142482172155,Success
68,7946,"LEARNING ENRICHMENT CENTER, 901 E. ALOSTA AVENUE",AZUSA,CA,91702.0,http://www.apu.edu/,AZUSA PACIFIC UNIVERSITY,34.124881,-117.903021,Success
69,9053,2700 BARSTOW ROAD,BARSTOW,CA,92311.0,http://www.barstow.cc.edu/,BARSTOW COMMUNITY COLLEGE,34.8732884960133,-117.022037981511,Success
70,7138,FORT ERWINBARSTOW ROAD BUILDING 285,FORT IRWIN,IR,5060.0,http://www.barstow.cc.edu/,BARSTOW COMMUNITY COLLEGE - FORT IRWIN CAMPUS,43.931946,-72.64479399999999,Success
71,9300,7460 MISSION VALLEY ROAD,SAN DIEGO,DI,92108.0,http://www.brandman.edu/,BRANDMAN UNIVERSITY,32.7789805205422,-117.16102252653099,Success
72,9836,"40015 SIERRA HIGHWAY, B160",PALMDALE,CA,93550.0,http://www.brandman.edu,BRANDMAN UNIVERSITY,34.6098084,-118.1235628,Success
73,7338,"MONTEREY, CA   93940",831,,3738.0,http://www.brandman.edu/monterey/,BRANDMAN UNIVERSITY - MONTEREY CAMPUS,0.0,0.0,Unmatchable
74,9655,"MONTEREY, CA   93940",831,,3738.0,http://www.brandman.edu,BRANDMAN UNIVERSITY - MONTEREY CAMPUS,0.0,0.0,Unmatchable
75,9078,1000 EAST VICTORIA STREET,CARSON,CA,90747.0,http://www.csudh.edu/,CALIFORNIA STATE UNIVERSITY - DOMINGUEZ HILLS,33.8638833,-118.255761,Success
76,9498,CALIFORNIA STATE UNIVERSITY - FRESNO CAMPUS,PLEASE FOLLOW THE LINK BELOW TO REGISTERFAMILY,FO,,http://fresnostate.edu/studentaffairs/examination/,CALIFORNIA STATE UNIVERSITY - FRESNO CAMPUS,0.0,0.0,Unmatchable
77,7229,"3335 BUCHANAN STREET, BUILDING 152",SAN DIEGO,DI,92136.0,http://www.ctcd.edu/,CENTRAL TEXAS COLLEGE,32.678744,-117.11995800000001,Success
78,7188,"NAVY CAMPUS PACIFIC, 1000 ROE STREET, BUILDING 2005",SAN DIEGO,DI,7024.0,http://www.ctcd.edu/,CENTRAL TEXAS COLLEGE,40.851376,-73.975825,Success
79,7313,"5405 GARDEN GROVE BLVD, SUITE 100",WESTMINSTER,CA,92683.0,http://military.coastline.edu/,COASTLINE COMMUNITY COLLEGE,33.77396910031511,-118.038424440727,Success
80,7252,BLDG 1331 BOX 555020A STREET &AMP; 12TH STREET BLDG. 1331,CAMP PENDLETON,PE,92055.0,http://military.coastline.edu/,COASTLINE COMMUNITY COLLEGE,33.291239000000004,-117.30124099999999,Success
81,7228,COASTLINE COMMUNITY COLLEGE,140 SYLVESTER RD,SY,103.0,619-726-3664,COASTLINE COMMUNITY COLLEGE,0.0,0.0,Unmatchable
82,8734,8888 BALBOA AVENUE,SAN DIEGO,DI,92123.0,http://www.coleman.edu/,COLEMAN UNIVERSITY,32.820813313078396,-117.13766541330799,Success
83,8864,"PALM DESERT, CA   92260",760,,7420.0,http://collegeofthedesert.edu/community/pace/pages/pex.aspx,"COLLEGE OF THE DESERT, PACE",41.02815,-74.298139,Success
84,9766,883 W. WASHINGTON BOULEVARD,CRESCENT CITY,CI,8361.0,http://www.redwoods.cc.ca.us/,COLLEGE OF THE REDWOODS,39.482485,-75.023974,Success
85,7178,826 HANCOCK CIRCLE,NAS LEMOORE,LE,5009.0,http://www.ccis.edu/nationwide/lemoore/,COLUMBIA COLLEGE,43.652072,-72.32299,Success
86,7832,3880 KILROY AIRPORT WAY,LONG BEACH,BE,90806.0,http://www.devry.edu/,DEVRY UNIVERSITY,33.8093485,-118.144995,Success
87,9302,"BURBANK, CA   91502",818,,4924.0,http://www.doveds.com,DOV EDUCATIONAL SERVICES,44.755486,-69.55414300000001,Success
88,8718,"5001 AIRPORT PLAZA DRIVE, SUITE 150",LONG BEACH,BE,90815.0,http://www.erau.edu/,EMBRY-RIDDLE AERONAUTICAL UNIVERSITY,33.808636989355996,-118.134936634245,Success
89,8251,1819 SOUTH EXCISE AVENUE,ONTARIO,CA,8525.0,http://www.everest.edu/,EVEREST COLLEGE,34.040448299999994,-117.5767324,Success
90,8222,"9251 E GARVEY AVE, GOLDEN VISTA PLAZA - SUITE V",EL MONTE,MO,91733.0,http://www.eznetwork.com/,EZ NETWORK SYSTEMS / ALISO INT\\\'L,34.051383,-118.04458799999999,Success
91,9826,"12345 ELMONTE ROAD, RM 5006",LOS ALTOS,AL,94022.0,http://www.foothill.edu/,FOOTHILL COLLEGE,37.36656,-122.13696000000002,Success
92,8029,321 E. CHAPMAN AVENUE,FULLERTON,CA,92832.0,http://www.fullcoll.edu/,FULLERTON COLLEGE,33.8741001538939,-117.919270055541,Success
93,8503,"10850 WILSHIRE BLVD, SUITE 570",LOS ANGELES,AN,90024.0,http://www.geps.org/,GLOBAL EDUCATION PLACEMENT SERVICES,34.0589551759479,-118.44135118255801,Success
94,8540,2500 E. NUTWOOD AVENUE,FULLERTON,CA,92831.0,http://www.hui.edu/,HOPE INTERNATIONAL UNIVERSITY,33.8781098449333,-117.88595638297899,Success
95,7814,HUMBOLDT STATE UNIVERSITY,1 HARPST STREET,HA,,707-826-5661,HUMBOLDT STATE UNIVERSITY,0.0,0.0,Unmatchable
96,8476,"4201 WILSHIRE BLVD, SUITE 610",LOS ANGELES,AN,90010.0,http://www.iau.la/,INTERNATIONAL AMERICAN UNIVERSITY,34.0618919,-118.31910990000002,Success
97,7963,"5500 IRVINE CENTER, A-304",IRVINE,CA,92618.0,http://www.ivc.edu/,IRVINE VALLEY COLLEGE,33.6772647623078,-117.77565872828,Success
98,8750,4500 RIVERWALK PARKWAY,RIVERSIDE,CA,92515.0,http://www.lasierra.edu/,LA SIERRA UNIVERSITY,33.910121600000004,-117.4957469,Success
99,7858,9393 LIGHTWAVE AVENUE #233A,SAN DIEGO,DI,92123.0,http://www.nu.edu/,NATIONAL UNIVERSITY,32.82808,-117.12771979999998,Success
100,7213,NATIONAL UNIVERSITY - 29 PALMS BASE,NATIONAL UNIVERSITY BLDG 1526,UN,,760) 830-6887,NATIONAL UNIVERSITY - 29 PALMS BASE,0.0,0.0,Unmatchable
101,7250,"MCAS MIRAMAR, BUILDING 5305",SAN DIEGO,DI,92145.0,http://www.nu.edu/,NATIONAL UNIVERSITY - MIRAMAR NAS BASE,32.874445,-117.152969,Success
102,8193,"1835 W. ORANGEWOOD, SUITE 200",ORANGE,CA,92868.0,http://www.nrclc.com/,NR COMPUTER LEARNING CENTER,33.795716999999996,-117.87224599999999,Success
103,8631,ONE ANGWIN AVENUE,ANGWIN,CA,94508.0,http://www.puc.edu/,PACIFIC UNION COLLEGE,38.570433394481896,-122.443024394755,Success
104,8793,4007 CAMINO DEL RIO SOUTH,SAN DIEGO,DI,92108.0,http://www.pointloma.edu/,POINT LOMA NAZARENE UNIVERSITY,32.7779989990983,-117.10762141586201,Success
105,9176,3600 WORKMAN MILL ROAD,WHITTIER,CA,90601.0,http://www.riohondo.edu/,RIO HONDO COLLEGE,34.0195149696039,-118.037952406386,Success
106,8325,3835 FREEPORT BOULEVARD,SACRAMENTO,CA,95822.0,http://www.scc.losrios.edu/,SACRAMENTO CITY COLLEGE,38.5423937599853,-121.491423767401,Success
107,7897,"6130 FREEPORT BLVD, SUITE 200A",SACRAMENTO,CA,95822.0,http://www.sactestproctoring.com/,SACRAMENTO TEST PROCTORING SERVICES,38.5151595277362,-121.500846548381,Success
108,7196,"NAVY BASE, 32ND STREET",SAN DIEGO,DI,92136.0,http://www.sdccd.edu/,SAN DIEGO CITY COLLEGE,32.678744,-117.11995800000001,Success
109,7134,"MARINE CORPS AIR STATION MIRAMAR, BUILDING 5305 MIRAMAR WAY",SAN DIEGO,DI,92145.0,http://www.sdccd.edu/,SAN DIEGO CITY COLLEGE,32.874445,-117.152969,Success
110,7862,5500 CAMPANILE DRIVE,SAN DIEGO,DI,7449.0,http://www.sa.sdsu.edu/testofc/,SAN DIEGO STATE UNIVERSITY,0.0,0.0,ExceptionOccurred
111,8846,34050 COUNTY LINE ROAD,YUCAIPA,CA,92399.0,http://www.simplexunited.com,SIMPLEX UNITED BUSINESS AND CAREER CENTER,34.0040925248178,-117.061522595667,Success
112,8264,1801 E. COTATI AVE.,ROHNERT PARK,PA,94928.0,http://www.sonoma.edu/,SONOMA STATE UNIVERSITY,38.343934000000004,-122.69988700000002,Success
113,8730,21726 PLACERITA CANYON ROAD,SANTA CLARITA,CL,91321.0,http://www.masters.edu/,THE MASTER'S COLLEGE,34.3815190158435,-118.516069446435,Success
114,7142,TOURO UNIVERSITY WORLDWIDE,10601 CALLE LEE,CA,179.0,480) 652-0777,TOURO UNIVERSITY WORLDWIDE,37.2400490280629,-119.503235535758,Success
115,9239,T.T.I.,241 S DETROIT ST,DE,,323-938-5196,T.T.I.,39.0627872145123,-75.4366948634987,Success
116,8192,160 PROMENADE CIRCLE STE. 115,SACRAMENTO,CA,95833.0,https://myunion.edu/,UNION INSTITUTE &AMP; UNIVERSITY - SACRAMENTO ACADEMIC CENTER,38.637715068377204,-121.49785674484501,Success
117,9437,UNITED STATES UNIVERSITY,830 BAY BOULEVARD,BA,,619-651-2482,UNITED STATES UNIVERSITY,0.0,0.0,Unmatchable
118,9269,"4119 BROAD STREET, STE. 200",SAN LUIS OBISPO,LU,93401.0,http://laverne.edu/locations/san-luis-obispo/,UNIVERSITY OF LA VERNE,35.2457196,-120.64209070000001,Success
119,9353,1950 THIRD STREET,LA VERNE,VE,91750.0,http://laverne.edu/locations/laverne/,UNIVERSITY OF LA VERNE,34.099705933201,-117.772935931749,Success
120,7318,BUILDING 162 NORTH MUGU RD.,POINT MUGU NAWC,MU,93042.0,http://laverne.edu/locations/point-mugu/,UNIVERSITY OF LA VERNE,34.122182,-119.09286499999999,Success
121,7204,"641 UTAH AVEBLDG. 13640, SUITE 230",VANDENBERG AFB,AF,93437.0,http://laverne.edu/locations/vafb/,UNIVERSITY OF LA VERNE,34.7388,-120.52506000000001,Success
122,8106,"2855 MICHELLE DRIVE, SUITE 250",IRVINE,CA,92606.0,http://laverne.edu/locations/irvine/,"UNIVERSITY OF LA VERNE, ORANGE COUNTY REGIONAL CAMPUS",33.7195378600287,-117.798959361332,Success
123,8297,"500 ESPLANADE DRIVE, SUITE 1000",OXNARD,CA,93036.0,http://laverne.edu/locations/oxnard/,"UNIVERSITY OF LA VERNE, VENTURA COUNTY REGIONAL CAMPUS",34.2287934,-119.17113329999998,Success
124,7139,"530 HICKAM AVENUE, ROOM C-111",TRAVIS AFB,AF,2751.0,http://www.umuc.edu/,UNIVERSITY OF MARYLAND UNIVERSITY COLLEGE,0.0,0.0,ExceptionOccurred
125,8235,"1515 WEST. 190TH STREET, 2ND FLOOR",GARDENA,CA,90248.0,http://www.phoenix.edu/,UNIVERSITY OF PHOENIX,33.8584438171455,-118.30389231075199,Success
126,9958,"SAN JOSE, CA   95134",408,,1167.0,http://www.phoenix.edu/,UNIVERSITY OF PHOENIX,0.0,0.0,Unmatchable
127,9926,2100 FRANKLIN STREET; SUITE 350,OAKLAND,CA,94612.0,http://www.phoenix.edu/,UNIVERSITY OF PHOENIX,37.8099355070499,-122.266666129932,Success
128,8238,1202 WEST AVENUE J,LANCASTER,CA,93534.0,http://www.phoenix.edu/,UNIVERSITY OF PHOENIX,34.6892841382589,-118.15373985441002,Success
129,8741,"4900 CALIFORNIA AVENUE, TOWER A, SUITE 150-A",BAKERSFIELD,CA,93309.0,http://www.phoenix.edu/,UNIVERSITY OF PHOENIX,35.3653148,-119.056306,Success
130,8236,299 NORTH EUCLID,PASADENA,CA,91101.0,http://www.phoenix.edu/,UNIVERSITY OF PHOENIX,34.1509685,-118.1433998,Success
131,8353,2481 CONSTITUTION DRIVE,LIVERMORE,CA,94551.0,http://www.phoenix.edu/,UNIVERSITY OF PHOENIX,37.7021636,-121.80978449999999,Success
132,9114,180 OTAY LAKES ROAD,BONITA,CA,91902.0,http://www.phoenix.edu/,UNIVERSITY OF PHOENIX- BONITA LEARNING CENTER,32.659176412251895,-117.030476520407,Success
133,8368,"45 E. RIVER PARK PLACE WESTSUITE 201, SECOND FLOOR",FRESNO,CA,93720.0,http://www.phoenix.edu/,UNIVERSITY OF PHOENIX - CENTRAL VALLEY CAMPUS,36.85879370000001,-119.7905101,Success
134,8240,"3150 BRISTOL STREET, SUITE 300",COSTA MESA,ME,92626.0,http://www.phoenix.edu/,UNIVERSITY OF PHOENIX - COSTA MESA CAMPUS,33.680139000000004,-117.908452,Success
135,9115,3095 N. IMPERIAL AVENUE,EL CENTRO,CE,92243.0,http://www.phoenix.edu/,UNIVERSITY OF PHOENIX - EL CENTRO LEARNING CENTER,32.784553,-115.571017,Success
136,8747,"5253 BUSINESS CENTER DR, STE B",FAIRFIELD,CA,94534.0,http://www.phoenix.edu,UNIVERSITY OF PHOENIX - FAIRFIELD LEARNING CENTER,38.2140199704782,-122.149206203232,Success
137,9101,6 CENTERPOINTE DRIVE SUITE 200,LA PALMA,PA,90623.0,http://www.phoenix.edu/,UNIVERSITY OF PHOENIX - LA PALMA LEARNING CENTER,33.849063,-118.03981399999999,Success
138,7744,"5330 PIRRONE ROAD, BUILDING B",SALIDA,CA,95368.0,http://www.phoenix.edu/,UNIVERSITY OF PHOENIX - MODESTO LEARNING CENTER,37.7167478814385,-121.092166253144,Success
139,8963,"25240 HANCOCK AVE, SUITE 200",MURRIETA,CA,92562.0,http://www.phoenix.edu/,UNIVERSITY OF PHOENIX - MURRIETA LEARNING CENTER,33.561305299999994,-117.18208159999999,Success
140,8239,3110 E. GUASTI ROAD,ONTARIO,CA,91761.0,http://www.phoenix.edu/,UNIVERSITY OF PHOENIX - ONTARIO LEARNING CENTER,34.065056299999995,-117.5832318,Success
141,9975,"2860 GATEWAY OAKS DRIVE, SUITE 100",SACRAMENTO,CA,95833.0,http://www.phoenix.edu/,UNIVERSITY OF PHOENIX - SACRAMENTO VALLEY CAMPUS,38.62210901771,-121.519173791282,Success
142,8976,"451 E VANDERBILT WAY, SUITE 100",SAN BERNARDINO,BE,92408.0,http://www.phoenix.edu/,UNIVERSITY OF PHOENIX - SAN BERNARDINO,34.0682605,-117.2755366,Success
143,9123,300 RANCHEROS DRIVE,SAN MARCOS,MA,92069.0,http://www.phoenix.edu/,UNIVERSITY OF PHOENIX - SAN MARCOS LEARNING CENTER,33.149519,-117.173018,Success
144,8969,"9645 GRANITE RIDGE DRIVE, STE 200",SAN DIEGO,DI,92123.0,http://www.phoenix.edu/,UNIVERSITY OF PHOENIX - STONECREST LEARNING CENTER,32.805414299999995,-117.1197053,Success
145,9141,301 EAST ACEQUIA AVENUE,VISALIA,CA,93291.0,http://www.phoenix.edu/,UNIVERSITY OF PHOENIX - VISALIA LEARNING CENTER,36.3291690070056,-119.29004743504998,Success
146,9021,"5955 DE SOTO AVE., SUITE 200",WOODLAND HILLS,HI,91367.0,http://www.phoenix.edu/,UNIVERSITY OF PHOENIX - WOODLAND HILLS LEARNING CENTER,34.178189,-118.623042,Success
147,8490,1409 N WALNUT GROVE AVE,ROSEMEAD,CA,91770.0,http://www.uwest.edu/site/,UNIVERSITY OF THE WEST,34.0445371517743,-118.08192166484899,Success
148,7348,VICTORY UNIVERSITY - COAST GUARD CENTER,1001 S,SE,,http://http://www.victory.edu/,VICTORY UNIVERSITY - COAST GUARD CENTER,0.0,0.0,Unmatchable
149,7339,140 METHUSA AVE,EDWARDS AFB,AF,93524.0,http://webster.edu/,WEBSTER UNIVERSITY,34.919545,-117.946773,Success
150,7227,"483 N. AVIATION BOULEVARD, BUILDING 272, ROOM C2-302",EL SEGUNDO,SE,90245.0,http://www.webster.edu/laafb,WEBSTER UNIVERSITY,33.9203347762124,-118.378363,Success
151,9273,"1190 SARATOGA AVENUE, SUITE 210",SAN JOSE,JO,95129.0,http://www.jessup.edu/,WILLIAM JESSUP UNIVERSITY - SAN JOSE CAMPUS,37.3036424404157,-121.97939357545,Success
152,7119,17849 16TH STREET,BEALE AFB,AF,95903.0,http://www.yccd.edu/,YUBA COLLEGE,39.11058,-121.35792,Success
153,8083,2088 NORTH BEALE ROAD,MARYSVILLE,CA,95901.0,http://www.yuba.cc.ca.us/,YUBA COMMUNITY COLLEGE DISTRICT,39.126912899999994,-121.5404121,Success
154,8710,5050 EDISON AVENUE SUITE 122,COLORADO SPRINGS,SP,80915.0,https://www.acuskill.com/,ACUSKILL,38.8399715425045,-104.734123459378,Success
155,8826,"5401 WEST 20TH ST, PO BOX 69",GREELEY,CO,80634.0,http://www.aims.edu,AIMS COMMUNITY COLLEGE,40.410872999999995,-104.7637417,Success
156,8125,104 EAST FOURTH STREET,LOVELAND,CO,80537.0,http://www.aims.edu/,AIMS COMMUNITY COLLEGE,40.3951137,-105.075741,Success
157,8484,260 COLLEGE AVENUE,FORT LUPTON,LU,80621.0,http://www.aims.edu/,AIMS COMMUNITY COLLEGE,40.083049,-104.7798162,Success
158,8797,5900 SOUTH SANTA FE DRIVE,LITTLETON,CO,9002.0,http://www.arapahoe.edu/,ARAPAHOE COMMUNITY COLLEGE,0.0,0.0,Success
159,8687,"2452 PATTERSON ROAD, SUITE 200",GRAND JUNCTION,JU,81505.0,http://www.ccu.edu/,COLORADO CHRISTIAN UNIVERSITY,39.0921549,-108.5984129,Success
160,8062,"1260 KENNEDY AVENUE, TESTING CENTER",GRAND JUNCTION,JU,81501.0,http://www.coloradomesa.edu/,COLORADO MESA UNIVERSITY,39.080461,-108.541256,Success
161,7752,500 KENNEDY DRIVE,RANGELY,CO,81648.0,http://www.cncc.edu/,COLORADO NORTHWESTERN COMMUNITY COLLEGE,40.07816114524,-108.789613191959,Success
162,9878,"7450 CAMPUS DRIVE, SUITE 100",COLORADO SPRINGS,SP,80920.0,http://www.regis.edu/about-regis-university/campus-locations/colorado-springs.aspx,COLORADO SPRINGS CAMPUS,38.9389622413584,-104.811128761462,Success
163,8825,16000 EAST CENTRETECH PARKWAY,AURORA,CO,80011.0,http://www.ccaurora.edu/,COMMUNITY COLLEGE OF AURORA,39.7178887,-104.8027073,Success
164,7191,"18401 E. A BASIN, STOP 97",BUCKLEY AFB,AF,80011.0,http://www.ccaurora.edu,COMMUNITY COLLEGE OF AURORA,39.74165,-104.791421,Success
165,8972,1201 5TH STREET,DENVER,CO,80204.0,http://www.ccd.edu/testing/,COMMUNITY COLLEGE OF DENVER,39.7424215952369,-105.010418057196,Success
166,9482,1765 U.S. HIGHWAY 50,DELTA,CO,81416.0,http://www.dmavtc.tec.co.us/,DELTA MONTROSE AREA VOCATIONAL TECHNICAL CENTER,38.704355017232,-108.03782981412701,Success
167,9877,"6380 SOUTH FIDDLERS GREEN CIRCLE, SUITE 200",GREENWOOD,VI,80111.0,http://www.regis.edu/about-regis-university/campus-locations/denver-tech-center.aspx,DENVER TECH CENTER CAMPUS,39.612706,-104.883398,Success
168,9152,"1000 RIM DRIVE, NOBLE 287",DURANGO,CO,81301.0,http://www.fortlewis.edu/,FORT LEWIS COLLEGE,37.2749830211726,-107.872038760151,Success
169,7791,4616 SOUTH SHIELDS STREET,FORT COLLINS,CO,80526.0,http://www.frontrange.edu/,FRONT RANGE COMMUNITY COLLEGE,40.521838200000005,-105.09320919999999,Success
170,8364,2190 MILLER DRIVE,LONGMONT,CO,80501.0,http://www.frontrange.edu/,FRONT RANGE COMMUNITY COLLEGE,40.1385364365517,-105.13010329059,Success
171,8003,3645 WEST 112TH AVENUE,WESTMINSTER,CO,80031.0,http://www.frontrange.edu/,FRONT RANGE COMMUNITY COLLEGE - WESTMINSTER CAMPUS,39.9017813693277,-105.039119662125,Success
172,8832,920 BARLOW ROAD,FORT MORGAN,MO,80701.0,http://www.morgancc.edu/,MORGAN COMMUNITY COLLEGE,40.256639,-103.80649100000001,Success
173,8617,"1079 SPACE CENTER DRIVE, STE 140",COLORADO SPRINGS,SP,80915.0,http://www.national.edu/,NATIONAL AMERICAN UNIVERSITY,38.8459931450057,-104.723016741066,Success
174,8137,1915 JAMBOREE DRIVE,COLORADO SPRINGS,SP,80920.0,http://www.national.edu,NATIONAL AMERICAN UNIVERSITY,38.95253480550179,-104.791614345313,Success
175,8769,100 COLLEGE DR,STERLING,CO,80751.0,http://www.njc.edu/,NORTHEASTERN JUNIOR COLLEGE,40.637933628842795,-103.19683415458,Success
176,9268,1903 SAN JUAN AVENUE STUDENT SERVICES - MCBRIDE HALL ROOM #132,LA JUNTA,JU,81050.0,http://www.ojc.edu/,OTERO JUNIOR COLLEGE,37.9710961805277,-103.546308815051,Success
177,7145,EDUCATION CENTER,PAFB,CO,80914.0,http://www.ppcc.edu/,PIKES PEAK COMMUNITY COLLEGE,38.786821,-104.714138,Success
178,9279,"5675 SOUTH ACADEMY BLVD, TESTING CENTER C 36",COLORADO SPRINGS,SP,80906.0,http://www.ppcc.edu/,PIKES PEAK COMMUNITY COLLEGE,38.791623,-104.82581400000001,Success
179,7146,EDUCATION CENTER,FORT CARSON,CA,80913.0,http://www.ppcc.edu/,PIKES PEAK COMMUNITY COLLEGE,38.609596,-104.809735,Success
180,7144,EDUCATION SERVICES,USAFA,CO,80840.0,http://www.ppcc.edu/,PIKES PEAK COMMUNITY COLLEGE,38.999759000000005,-104.695596,Success
181,8599,"900 WEST ORMAN AVENUE, ACADEMIC BUILDING 150",PUEBLO,CO,81004.0,http://www.pueblocc.edu/,PUEBLO COMMUNITY COLLEGE,38.262303499999994,-104.6375293,Success
182,7979,13300 W. 6TH AVE.,LAKEWOOD,CO,80228.0,http://www.rrcc.edu//,RED ROCKS COMMUNITY COLLEGE,39.7214768165255,-105.1537856341,Success
183,9938,REGISTER VIA BELOW WEBSITE3333 REGIS BLVD CLARKE HALL STE 241,DENVER,CO,80221.0,http://regis.edu/testing,REGIS UNIVERSITY-FLAGSHIP CAMPUS,39.83442,-105.00953999999999,Success
184,8183,10004 PARK MEADOWS DRIVE,LONE TREE,TR,80124.0,http://phoenix.edu,UNIVERSITY OF PHOENIX - COLORADO CAMPUS,39.5516168,-104.87330619999999,Success
185,9137,"2 NORTH CASCADE AVENUE, SUITE 100",COLORADO SPRINGS,SP,80903.0,http://www.phoenix.edu/,UNIVERSITY OF PHOENIX - COLORADO SPRINGS DOWNTOWN,38.8346012456617,-104.825267867036,Success
186,9928,85 ALUMNI ROAD,NEWINGTON,CT,6111.0,http://www.cosc.edu/,CHARTER OAK STATE COLLEGE - TESTING CENTER,41.698021600000004,-72.74754109999999,Success
187,9533,591 POQUONNOUCK ROAD,GROTON,CT,6340.0,http://www.easternnct.edu/,EASTERN CONNECTICUT STATE UNIVERSITY,41.341433,-72.0593439,Success
188,9454,900 LAFAYETTE BLVD,BRIDGEPORT,CT,4704.0,http://www.hctc.commnet.edu/,HOUSATONIC COMMUNITY TECHNICAL COLLEGE,41.17462329999999,-73.1904572,Success
189,8618,"30 HAZEL TER, SUITE 4",WOODBRIDGE,CT,6525.0,http://www.metrotestingct.com/,METRO TESTING SERVICE,41.338738397724704,-72.98267152362621,Success
190,9338,"110 LENOX AVE, SUITE 102",STAMFORD,CT,6906.0,http://www.metrotestingct.com/stamford1.html,METRO TESTING SERVICE- STAMFORD,41.0692309,-73.51075440000001,Success
191,8416,"99 PRATT STREET, SUITE 209",HARTFORD,CT,6103.0,http://www.patricksacademy.com/,PATRICK\\'S ACADEMY,41.767643,-72.6750845,Success
192,9605,742 UPPER MAPLE STREET,DANIELSON,CT,6239.0,http://www.qvcc.commnet.edu/,QUINEBAUG VALLEY COMMUNITY COLLEGE,41.8258910008788,-71.893803864943,Success
193,8380,5151 PARK AVE,FAIRFIELD,CT,6825.0,http://www.sacredheart.edu/,SACRED HEART UNIVERSITY,41.2204471,-73.242685,Success
194,9233,574 NEW LONDON TURNPIKE,NORWICH,CT,6360.0,http://www.trctc.commnet.edu/,THREE RIVERS COMMUNITY TECHNICAL COLLEGE,41.509333409228795,-72.0984231063022,Success
195,8351,1133 15TH STREET NW,WASHINGTON,DC,20005.0,http://www.strayer.edu/,STRAYER UNIVERSITY,38.9048614,-77.0340238,Success
196,9725,"6830 LAUREL STREET, NW",WASHINGTON,DC,20012.0,http://www.strayer.edu/,STRAYER UNIVERSITY,38.973203000000005,-77.01386,Success
197,7180,112 BROOKLEY AVENUE,WASHINGTON,DC,20023.0,http://www.umuc.edu/,UMUC NATIONAL TESTING CENTER - JOINT BASE ANACOSTIA-BOLLING,38.8439924,-77.0112459,Success
198,8956,25 MASSACHUSETTS AVENUE,WASHINGTON,DC,20001.0,http://phoenix.edu,UNIVERSITY OF PHOENIX - WASHINGTON DC CAMPUS,38.8984654,-77.01041670000001,Success
199,9464,"DOVER, DE   19901-2277",302,,6143.0,http://www.desu.edu/,DELAWARE STATE UNIVERSITY,41.790844,-72.66892,Success
200,8594,"1007 ORANGE STREET, SUITE 500",WILMINGTON,DE,19801.0,http://www.springfieldcollege.edu/,SPRINGFIELD COLLEGE,39.7468383,-75.5492704,Success
201,9730,"240 CONTINENTAL DRIVE, SUITE 108",NEWARK,DE,19713.0,http://www.strayer.edu/,STRAYER UNIVERSITY,39.6862056,-75.6599269,Success
202,7121,"436 FSS/FSDE, 261 CHAD STREET, ROOM 301",DOVER,DE,19902.0,http://www.wilmu.edu/,WILMINGTON UNIVERSITY,39.120867,-75.478601,Success
203,8212,5250 17TH STREET,SARASOTA,FL,34235.0,http://www.argosyu.edu/,ARGOSY UNIVERSITY,27.351228000000003,-82.4650343,Success
204,9042,1403 N. HOWARD AVENUE,TAMPA,FL,33607.0,http://www.argosyu.edu/,ARGOSY UNIVERSITY,27.955197708126303,-82.48238036920641,Success
205,9685,"5200 VINELINE ROAD, STE 100",ORLANDO,FL,32811.0,http://www.belhaven.edu,BELHAVEN COLLEGE,28.4876978,-81.44172370000001,Success
206,7712,3800 S. LECANTO HIGHWAY,LECANTO,FL,9026.0,http://www.cf.edu/,CENTRAL FLORIDA COMMUNITY COLLEGE,28.808750300000003,-82.4893422,Success
207,8717,"3001 SW COLLEGE ROAD, BUILDING #5, 205 H",OCALA,FL,34474.0,http://www.cf.edu/,CENTRAL FLORIDA COMMUNITY COLLEGE,29.1656994198403,-82.1780327628031,Success
208,7217,"250 CHAMBERS AVENUE, BUILDING 634, SUITE 023",NAS PENSACOLA,PE,32508.0,http://military.coastline.edu/,COASTLINE COMMUNITY COLLEGE,30.353315000000002,-87.276065,Success
209,9819,"2600 TECHNOLOGY DRIVE, SUITE 100",ORLANDO,FL,32804.0,http://www.ccis.edu/nationwide/orlando/,COLUMBIA COLLEGE,28.555287800000002,-81.412687,Success
210,7128,"1020 CENTRAL AVENUE, E-1",PATRICK AIR FORCE BASE,AI,32925.0,http://www.ccis.edu/nationwide/pafb/,COLUMBIA COLLEGE,28.229987,-80.62352800000001,Success
211,8816,3865 NORTH WICKHAM ROAD (10-218),MELBOURNE,FL,32935.0,http://www.easternflorida.edu,EASTERN FLORIDA STATE COLLEGE,28.168792600000003,-80.6684165,Success
212,9551,"SPECIAL PROGRAMS DIVISION, 4200 54TH AVENUE SOUTH",ST PETERSBURG,PE,33711.0,http://www.eckerd.edu/,ECKERD COLLEGE,27.751284000000002,-82.687336,Success
213,9099,110 SUNSHINE MANOR,TALLAHASSEE,FL,32307.0,http://www.famu.edu/,FLORIDA A &AMP; M UNIVERSITY,30.431483,-84.288359,Success
214,7726,777 GLADES ROAD,BOCA RATON,RA,33431.0,http://www.fau.edu/,FLORIDA ATLANTIC UNIVERSITY,26.369433299999997,-80.10228659999999,Success
215,9713,"10501 FGCU BLVD SOUTH, MCTARNAGHAN HALL, ROOM 204",FORT MYERS,MY,33965.0,http://studentservices.fgcu.edu/testing,FLORIDA GULF COAST UNIVERSITY,26.464191200000002,-81.7730159,Success
216,8000,11200 SW 8TH ST,MIAMI,FL,33199.0,https://testing.fiu.edu,FLORIDA INTERNATIONAL UNIVERSITY,25.7610546584462,-80.3761954941713,Success
217,9463,3000 N.E. 151ST STREET,NORTH MIAMI,MI,33181.0,http://testing.fiu.edu,FLORIDA INTERNATIONAL UNIVERSITY (BISCAYNE BAY CAMPUS),25.902791,-80.15129,Success
218,8524,5901 COLLEGE ROAD,KEY WEST,WE,33040.0,http://www.fkcc.edu/,FLORIDA KEYS COMMUNITY COLLEGE,24.5861494079817,-81.747780245303,Success
219,7793,15800 NW 42ND AVE,MIAMI GARDENS,GA,33054.0,http://www.fmuniv.edu//,FLORIDA MEMORIAL UNIVERSITY,25.90529,-80.25716,Success
220,9466,111 LAKE HOLLINGSWORTH DRIVE,LAKELAND,FL,5698.0,http://www.flsouthern.edu/,FLORIDA SOUTHERN COLLEGE,28.0304608,-81.9441528,Success
221,7711,5640 NEW WORLD AVE,JACKSONVILLE,FL,32221.0,http://www.fscj.edu/mydegree/campuses/cecil-center/,FLORIDA STATE COLLEGE AT JACKSONVILLE - CECIL CENTER,30.2502191,-81.8907353,Success
222,8554,9911 OLD BAYMEADOWS RD,JACKSONVILLE,FL,32256.0,http://www.fscj.edu/mydegree/campuses/deerwood-center/,FLORIDA STATE COLLEGE AT JACKSONVILLE - DEERWOOD CAMPUS,30.2215015836379,-81.55305705153741,Success
223,9683,101 WEST STATE ST. ROOM 1021,JACKSONVILLE,FL,32202.0,http://www.fscj.edu/,FLORIDA STATE COLLEGE- DOWNTOWN,30.334813399999994,-81.65892109999999,Success
224,8621,"KENT CAMPUS, 3939 ROOSEVELT, BLDG A, RM 104",JACKSONVILLE,FL,32205.0,http://www.fccj.org/,FLORIDA STATE COLLEGE- KENT CAMPUS,30.30316,-81.726849,Success
225,7102,"BLDG 110, ROOM 16, YORKTOWN AVENUE",JACKSONVILLE,FL,32212.0,http://www.fscj.edu/,FLORIDA STATE COLLEGE- NAS JAX,30.209822999999997,-81.688591,Success
226,9682,"JACKSONVILLE CAMPUS, 4501 CAPPER ROAD",JACKSONVILLE,FL,32218.0,http://www.fscj.edu/,FLORIDA STATE COLLEGE- NORTH CAMPUS,30.461492,-81.625786,Success
227,7104,"460 MASSEY AVENUE, BLDG #460",MAYPORT,FL,32228.0,http://www.fscj.edu/,FLORIDA STATE COLLEGE - NS MAYPORT,30.388853000000005,-81.43319100000001,Success
228,9681,"11901 BEACH BOULEVARD, BUILDING U, ROOM 120",JACKSONVILLE,FL,32246.0,http://www.fscj.edu/,FLORIDA STATE COLLEGE- SOUTH CAMPUS,30.2918081,-81.50929599999999,Success
229,7182,921 BEACON BEACH ROAD,TYNDALL AFB,AF,32403.0,http://www.gulfcoast.edu/,GULF COAST STATE COLLEGE,30.0758711,-85.6057338,Success
230,9628,1780 W. 49 STREET ROOM 1220-01,HIALEAH,FL,33012.0,http://www.mdc.edu/main/testing,MIAMI DADE COLLEGE - HIALEAH CAMPUS,25.8646667635118,-80.31874639918671,Success
231,9627,"HOMESTEAD, FL   33030",305,,5198.0,http://www.mdc.edu/homestead/,MIAMI DADE COLLEGE - HOMESTEAD CAMPUS,0.0,0.0,Unmatchable
232,8731,"950 NW 20TH ST, TESTING, RM 1303",MIAMI,FL,33127.0,http://www.mdc.edu/main/testing,MIAMI DADE COLLEGE - MEDICAL CAMPUS,25.7946126,-80.2103891,Success
233,9629,"NORTH TESTING, 11380 NW 27TH AVENUE, ROOM 1160",MIAMI,FL,3418.0,http://www.mdc.edu/north/,MIAMI DADE COLLEGE NORTH CAMPUS,25.775256372341598,-80.2088512058982,Success
234,8348,"3800 NW 115 AVENUE, ROOM 2110",MIAMI,FL,33178.0,http://www.mdc.edu/main/testing,MIAMI DADE COLLEGE WEST CAMPUS,25.8084318224157,-80.3846450862819,Success
235,9626,"300 NE 2ND AVENUE, ROOM 3104",MIAMI,FL,33132.0,http://www.mdc.edu/main/testing,MIAMI DADE COLLEGE - WOLFSON CAMPUS,25.777476500000002,-80.1906272,Success
236,7150,100 COLLEGE BLVD E.,NICEVILLE,FL,32578.0,http://www.nwfsc.edu/,NORTHWEST FLORIDA STATE COLLEGE,30.5385863591247,-86.4734853063298,Success
237,7114,221 LUKASIK AVENUE,HURLBURT FIELD,FI,32544.0,http://www.nwfsc.edu/,NORTHWEST FLORIDA STATE COLLEGE - HURLBURT AFB,30.421135999999997,-86.695646,Success
238,9876,"TTC/COUS - STUDENT AFFAIRS BLDG., 2ND FL., 3301 COLLEGE AVENUE",FORT LAUDERDALE,LA,33314.0,http://www.nova.edu/,NOVA SOUTHEASTERN UNIVERSITY,26.070010999999997,-80.219723,Success
239,9800,1000 COLLEGE BLVD.,PENSACOLA,FL,32504.0,http://www.pensacolastate.edu,PENSACOLA STATE COLLEGE,30.478703377118897,-87.2037959978644,Success
240,8772,5988 HIGHWAY 90,MILTON,FL,1798.0,http://www.pensacolastate.edu/,PENSACOLA STATE COLLEGE - MILTON CAMPUS,30.628545231042,-87.05265156270781,Success
241,8786,5555 WEST HIGHWAY 98,PENSACOLA,FL,1097.0,http://www.pensacolastate.edu,PENSACOLA STATE COLLEGE-WARRINGTON CAMPUS,42.160733,-72.83979699999999,Success
242,7177,"8102 CONDOR STREET, BUILDING 252",MACDILL AFB,AF,33621.0,http://www.saintleo.edu/,SAINT LEO UNIVERSITY,27.850500399999994,-82.4895038,Success
243,7337,"NAVAL AIR STATION KEY WEST, BLDG A-718, ESSEX CIRCLE",KEY WEST,WE,9033.0,http://www.saintleo.edu/,SAINT LEO UNIVERSITY,0.0,0.0,Success
244,9408,325 NW TURNER DAVIS DRIVE,MADISON,FL,32340.0,http://www.saintleo.edu/,SAINT LEO UNIVERSITY,30.474927917132202,-83.4221242715696,Success
245,8320,"1120 EAST KENNEDY BLVD, SUITE 238",TAMPA,FL,33602.0,http://www.saintleo.edu/,SAINT LEO UNIVERSITY,27.9511657,-82.4479439,Success
246,9378,149 SOUTHEAST COLLEGE PLACE,LAKE CITY,CI,8307.0,http://www.saintleo.edu/,SAINT LEO UNIVERSITY - LAKE CITY CENTER,0.0,0.0,ExceptionOccurred
247,9470,3000 NW 83RD ST,GAINSVILLE,FL,32606.0,http://www.sfcc.edu/,SANTA FE COMMUNITY COLLEGE,29.6813836,-82.433199,Success
248,7959,7959,SCHOOL OF VIRTUAL AND ACADEMIC EXCELLENCE,OF,,"MIAMI, FL   33186",SCHOOL OF VIRTUAL AND ACADEMIC EXCELLENCE,0.0,0.0,Unmatchable
249,7805,"850 S. STATE ROAD, SUITE A-103",ALTAMONTE SPRINGS,SP,32714.0,http://www.seminolestate.edu/,SEMINOLE STATE COLLEGE OF FLORIDA - ALTAMONTE SPRINGS CAMPUS,28.666520000000002,-81.41323100000001,Success
250,7818,"1055 AAA DRIVE, SUITE 332",HEATHROW,FL,32746.0,http://www.seminolestate.edu/,SEMINOLE STATE COLLEGE OF FLORIDA - HEATHROW CAMPUS,28.773793463959304,-81.3623311519425,Success
251,7812,"2505 LOCKWOOD BOULEVARD, SUITE F-102",OVIEDO,FL,32765.0,http://www.seminolestate.edu/,SEMINOLE STATE COLLEGE OF FLORIDA - OVIEDO CAMPUS,28.6316108,-81.1704169,Success
252,8624,"ASSESSMENT &AMP; TESTING CENTER, 100 WELDON BLVD",SANFORD,FL,32773.0,http://www.seminolestate.edu/,SEMINOLE STATE COLLEGE OF FLORIDA - SANFORD/LAKE MARY,28.765778000000005,-81.276553,Success
253,8643,1000 LONGFELLOW BLVD,LAKELAND,FL,33801.0,http://www.seu.edu/,SOUTHEASTERN UNIVERSITY,28.032303000000002,-81.91840520000001,Success
254,9444,225 BUSCH BLVD,TAMPA,FL,33612.0,http://www.springfieldcollege.edu/,SPRINGFIELD COLLEGE,28.033305900000002,-82.46208890000001,Success
255,7819,"11025 RCA CENTER DRIVE, SUITE 200",PALM BEACH GARDENS,BE,33410.0,http://www.strayer.edu/,STRAYER UNIVERSITY,26.839347200000002,-80.09627940000001,Success
256,7874,"2307 W. BROWARD BOULEVARD, STE 100",FORT LAUDERDALE,LA,33312.0,http://www.strayer.edu/,STRAYER UNIVERSITY,26.088164000000003,-80.18451400000001,Success
257,8052,"11430 NW 20TH ST, SUITE 150",MIAMI,FL,33172.0,http://www.strayer.edu/,STRAYER UNIVERSITY,25.7913774,-80.38183740000001,Success
258,7774,8541 SOUTH PARK CIRCLE SUITE 310,ORLANDO,FL,32819.0,http://www.strayer.edu/,STRAYER UNIVERSITY,28.438786,-81.4255469,Success
259,9427,"850 TRAFALGAR CT , SUITE 360",MAITLAND,FL,32751.0,http://www.strayer.edu/,STRAYER UNIVERSITY,28.6350434,-81.389662,Success
260,7798,5830 CORAL RIDGE DR SUITE 300,CORAL SPRINGS,SP,33076.0,http://www.strayer.edu/,STRAYER UNIVERSITY,26.3037583,-80.2808973,Success
261,9944,"4902 EISENHOWER BLVD, STE 100",TAMPA,FL,33634.0,http://www.strayer.edu/,STRAYER UNIVERSITY,27.9901773,-82.5468203,Success
262,8644,"2200 NORTH ALAFAYA TRAIL, SUITE 500",ORLANDO,FL,32826.0,http://www.strayer.edu/,STRAYER UNIVERSITY,28.5738005,-81.2082118,Success
263,9073,"5650 BRECKENRIDGE PARK DR, STE 300",TAMPA,FL,33610.0,http://www.strayer.edu/,STRAYER UNIVERSITY,27.997375599999998,-82.35993559999999,Success
264,7760,8375 DIX-ELLIS TRAIL STE 200,JACKSONVILLE,FL,32256.0,http://www.strayer.edu/,STRAYER UNIVERSITY,30.216237699999997,-81.5694755,Success
265,7972,1201 BRICKELL AVENUE,MIAMI,FL,33131.0,http://www.strayer.edu/,STRAYER UNIVERSITY - BRICKELL CAMPUS,25.761912600000002,-80.19130390000001,Success
266,7937,15620 SW 29TH STREET,MIRAMAR,FL,33027.0,http://www.strayer.edu/,STRAYER UNIVERSITY/MIRAMAR,25.978092999999998,-80.330196,Success
267,7857,16401 NW 37TH AVENUE,MIAMI GARDENS,GA,33054.0,http://www.stu.edu/,ST. THOMAS UNIVERSITY,25.90529,-80.25716,Success
268,7357,502 WEST D AVE,EGLIN AFB,AF,32542.0,http://www.umuc.edu/,UNIVERSITY OF MARYLAND UNIVERSITY COLLEGE,30.464353000000003,-86.534988,Success
269,8979,"8325 SOUTH PARK CIRCLE, SUITE 100",ORLANDO,FL,32819.0,http://www.phoenix.edu/campus-locations/fl/central-florida-campus/central-florida-main-campus.html,UNIVERSITY OF PHOENIX - CENTRAL FLORIDA CAMPUS,28.445351000000002,-81.4194659,Success
270,8885,550 W. CYPRESS CREEK ROAD,FORT LAUDERDALE,LA,33309.0,http://www.phoenix.edu/,UNIVERSITY OF PHOENIX - CYPRESS CREEK LEARNING CENTER,26.182764000000002,-80.175692,Success
271,8280,"4500 SALISBURY ROAD N. , SUITE 200",JACKSONVILLE,FL,32216.0,http://www.phoenix.edu/,UNIVERSITY OF PHOENIX - NORTH FLORIDA CAMPUS,30.250843100000004,-81.59180079999999,Success
272,9032,"2400 SW 145TH AVE, SUITE 150",MIRAMAR,FL,33027.0,http://www.phoenix.edu/,UNIVERSITY OF PHOENIX - SOUTH FLORIDA MAIN CAMPUS,25.9866878612467,-80.3419810048008,Success
273,8960,"12802 TAMPA OAKS BLVD, SUITE 100",TEMPLE TERRACE,TE,33637.0,http://www.phoenix.edu/,UNIVERSITY OF PHOENIX - WEST FLORIDA LEARNING CENTER,28.062976899999995,-82.35566,Success
274,7917,3220 USF BANYAN CIRCLE,TAMPA,FL,33613.0,http://www.usf.edu/testing-services/,UNIVERSITY OF SOUTH FLORIDA,28.075939,-82.45056,Success
275,8994,1201 NORTH SCENIC HWY,BABSON PARK,PA,33827.0,http://www.webber.edu/,WEBBER COLLEGE,27.830226,-81.534299,Success
276,8773,8950 STIRLING RD,COOPER CITY,CI,33024.0,http://www.westlakeschool.com/,WESTLAKE PREPARATORY SCHOOL,26.0430815,-80.2665175,Success
277,8365,"15190 SW 136 ST, SUITE 26",MIAMI,FL,33196.0,http://worldhopeacademy.org/,WORLD HOPE ACADEMY,25.651234,-80.48136,Success
278,8268,2802 MOORE HIGHWAYABAC BOX 50,TIFTON,GA,31793.0,http://stallion.abac.peachnet.edu/,ABRAHAM BALDWIN AGRICULTURAL COLLEGE,31.465874,-83.505876,Success
279,9727,"504 COLLEGE DRIVE, ACAD 195",ALBANY,GA,31705.0,http://www.asurams.edu/,ALBANY STATE UNIVERSITY,31.572068358786996,-84.1443269195066,Success
280,8817,AMPRESS GLOBAL,1401 PEACHTREE STREET NE,PE,,404) 410-9999,AMPRESS GLOBAL,0.0,0.0,Unmatchable
281,8677,"5825 LIVE OAK PARKWAY, SUITE 2A",NORCROSS,GA,30093.0,http://www.aonestaffing.com/,A-ONE STAFFING LLC,33.907299924697,-84.2031078772548,Success
282,9046,11935 ABERCORN ST,SAVANNAH,GA,31419.0,http://www.armstrong.edu/,ARMSTRONG ATLANTIC STATE UNIVERSITY,31.9810359,-81.16257519999999,Success
283,9297,1001 S. ARMED FORCES BLVD,WARNER ROBINS,RO,31088.0,http://gavectr.org/services.html,CENTRAL GEORGIA TECHNICAL COLLEGE (VECTR),32.595758000000004,-83.638378,Success
284,8552,"3664 CLUB DRIVE, SUITE 101",LAWRENCEVILLE,GA,30044.0,http://www.cierratec.com/,CIERRA TEC,33.9410029739473,-84.1253636427085,Success
285,7235,"165 MARKWELL STREET, BUILDING 1290, SUITE 16",HUNTER ARMY AIR FIELD,AR,31409.0,http://www.ccis.edu/nationwide/hunter/,COLUMBIA COLLEGE,32.02251,-81.12857,Success
286,7103,"100 KNOWLEDGE DRIVE, SUITE 147",FORT STEWART,ST,31314.0,http://www.ccis.edu/nationwide/ftstewart/,COLUMBIA COLLEGE,31.866667,-81.583333,Success
287,9113,4225 UNIVERSITY AVE,COLUMBUS,GA,5647.0,http://www.columbusstate.edu/,COLUMBUS STATE UNIVERSITY,44.400126,-72.29761500000001,Success
288,9258,"5304 PANOLA INDUSTRIAL BLVD, SUITE I",DECATUR,GA,30035.0,http://www.csp2online.com,COMPUTER SERVICES PLUS ONLINE,33.726646,-84.20786600000001,Success
289,7754,650 COLLEGE DRIVE,DALTON,GA,30720.0,http://www.daltonstate.edu,DALTON STATE COLLEGE,34.7783911233749,-85.00153725762691,Success
290,7821,2555 NORTHWINDS PARKWAY,ALPHARETTA,GA,30009.0,http://www.devry.edu/,DEVRY UNIVERSITY,34.0586001964221,-84.28397438389959,Success
291,7826,"ONE WEST COURT SQUARE, STE 100",DECATUR,GA,30030.0,http://www.devry.edu/,DEVRY UNIVERSITY,33.773883000000005,-84.295376,Success
292,9120,1000 UNIVERSITY CENTER LANE,LAWRENCEVILLE,GA,30043.0,http://www.ggc.edu/,GEORGIA GWINNETT COLLEGE,33.979562179983304,-84.0011140464629,Success
293,8124,"2101 WOMACK ROAD, BLDG NC, RM 1261",DUNWOODY,GA,30338.0,http://www.gpc.edu/,GEORGIA PERIMETER COLLEGE,33.938634,-84.316813,Success
294,9049,2500 WALTON WAY,AUGUSTA,GA,2200.0,http://www.gru.edu/,GEORGIA REGENTS UNIVERSITY,33.476372399999995,-82.02271800000001,Success
295,8039,"HERTY DRIVE, CONE HALL, ROOM 2031",STATESBORO,GA,30460.0,http://academics.georgiasouthern.edu/testing/,GEORGIA SOUTHERN UNIVERSITY,32.444047,-81.745328,Success
296,9700,"75 PIEDMONT AVENUE NE, SUITE 200 A",ATLANTA,GA,30303.0,http://www.gsu.edu/,GEORGIA STATE UNIVERSITY,33.7561784913127,-84.3821518559318,Success
297,9231,419 COLLEGE DRIVE,BARNESVILLE,GA,30204.0,http://www.gordonstate.edu/,GORDON STATE COLLEGE,33.0442102363378,-84.1535509564027,Success
298,8902,"3333 BUSBEE DRIVE, MD3313 KSU CENTER SUITE 350",KENNESAW,GA,30144.0,http://testing.kennesaw.edu/,KENNESAW STATE UNIVERSITY - KENNESAW,34.034048999999996,-84.584675,Success
299,8903,1100 SOUTH MARIETTA PARKWAY MD 9051/BUILDING J ROOM 160,MARIETTA,GA,30060.0,http://testing.kennesaw.edu/,KENNESAW STATE UNIVERSITY - MARIETTA,33.936824,-84.52934599999999,Success
300,8105,601 BROAD ST,LA GRANGE,GR,30240.0,http://www.lagrange.edu/,LAGRANGE COLLEGE,33.0399300271273,-85.0441368286771,Success
301,9647,1269 BARCLAY CIRCLE,MARIETTA,GA,30060.0,http://www.life.edu/,LIFE UNIVERSITY,33.931411682803194,-84.5231591849857,Success
302,8770,100 COLLEGE STATION DRIVE,MACON,GA,31206.0,http://www.mga.edu/testing-services/dantes.aspx,MIDDLE GEORGIA STATE UNIVERSITY,32.8114655811021,-83.7279374673295,Success
303,7351,100 UNIVERSITY BLVD,WARNER ROBINS,RO,31093.0,http://www.maconstate.edu/,MIDDLE GEORGIA STATE UNIVERSITY,32.636119,-83.641763,Success
304,7719,2605 BEN HILL ROAD,EAST POINT,PO,30344.0,http://www.acc.edu/,POINT UNIVERSITY,33.684807799999994,-84.47364759999999,Success
305,8117,"259 WHITING HALL, TOMPKINS ROAD",SAVANNAH,GA,31404.0,http://www.savannahstate.edu/,SAVANNAH STATE UNIVERSITY,32.044042,-81.068991,Success
306,9483,"3000 CORPORATE CENTER, SUITE 100",MORROW,GA,30260.0,http://www.strayer.edu/,STRAYER UNIVERSITY,33.5717435927785,-84.3347434650103,Success
307,9227,"100 MANSELL COURT EAST, SUITE 100",ROSWELL,GA,30076.0,http://www.strayer.edu/,STRAYER UNIVERSITY,34.041721700000004,-84.3283056,Success
308,7733,"TESTING OFFERED FOR STRAYER UNIVERSITY STUDENTS ONLY3120 STONECREST BLVD, SUITE 200",LITHONIA,GA,30038.0,http://www.strayer.edu/,STRAYER UNIVERSITY,33.681893,-84.161895,Success
309,8096,"3355 NORTHEAST EXPRESSWAY, STE 100",ATLANTA,GA,30341.0,http://www.strayer.edu/,STRAYER UNIVERSITY,33.877130585399996,-84.2735041449585,Success
310,7848,20 MARTIN COURT,SAVANNAH,GA,31419.0,http://www.strayer.edu/,STRAYER UNIVERSITY,32.008573600000005,-81.2807154,Success
311,7781,6003 VETERANS PARKWAY,COLUMBUS,GA,31909.0,http://www.strayer.edu/,STRAYER UNIVERSITY,32.5286682028328,-84.9593149642223,Success
312,7724,4655 TIMBER RIDGE DRIVE,DOUGLASVILLE,GA,30135.0,http://www.strayer.edu/,STRAYER UNIVERSITY,33.7344056407127,-84.73154416792809,Success
313,7855,1330 AUGUSTA WEST PARKWAY,AUGUSTA,GA,30909.0,http://www.strayer.edu/,STRAYER UNIVERSITY,33.4694217,-82.0853587,Success
314,7186,"BUILDING 9230, SUITE 1323",FORT BENNING,BE,2456.0,http://www.troy.edu/,TROY UNIVERSITY,42.333573,-71.20410600000001,Success
315,9808,"2743 PERIMETER PARKWAY, SUITE 201",AUGUSTA,GA,30909.0,http://www.troy.edu/,TROY UNIVERSITY,33.4875983,-82.0845772,Success
316,7126,"741 BARNES AVENUE, BLDG 21606",FORT GORDON,GO,5136.0,http://www.troy.edu/,TROY UNIVERSITY - FORT GORDON,0.0,0.0,ExceptionOccurred
317,7374,"271 HERITAGE PARK LANE EDUCATION CENTER, BLDG 35200",FORT GORDON,GO,30905.0,http://www.umuc.edu/military-and-veterans/why-umuc/worldwide-and-regional-locations.cfm,UMUC US- FORT GORDAN,33.403925,-82.120051,Success
318,9212,82 COLLEGE CIRCLE,DAHLONEGA,GA,30597.0,http://www.ung.edu/testing/,UNIVERSITY OF NORTH GEORGIA - DAHLONEGA CAMPUS,34.528036,-83.987193,Success
319,9209,3820 MUNDY MILL ROAD,OAKWOOD,GA,30566.0,http://www.ung.edu/testing/,UNIVERSITY OF NORTH GEORGIA - GAINESVILLE CAMPUS,34.236484000000004,-83.89479,Success
320,9215,1201 BISHOP FARMS PARKWAY,WATKINSVILLE,GA,30677.0,http://www.ung.edu/testing/,UNIVERSITY OF NORTH GEORGIA - OCONEE CAMPUS,33.8662455648979,-83.4258262972204,Success
321,7853,"3150 PERIMETER PARKWAY, STE 100",AUGUSTA,GA,30909.0,http://www.phoenix.edu/,UNIVERSITY OF PHOENIX - AUGUSTA CAMPUS,33.49087539999999,-82.08869990000001,Success
322,8939,7200 NORTH LAKE DRIVE,COLUMBUS,GA,31909.0,http://www.phoenix.edu/,UNIVERSITY OF PHOENIX - COLUMBUS NORTH LAKE CAMPUS,32.534042,-84.92471,Success
323,8686,859 MT. VERNON HWY NE,ATLANTA,GA,30328.0,http://www.phoenix.edu/campus-locations/ga/atlanta-campus/dekalb-learning-center.html,UNIVERSITY OF PHOENIX - DEKALB LEARNING CENTER,33.933854,-84.386944,Success
324,8774,"8200 ROBERTS DRIVE, SUITE 300",ATLANTA,GA,30350.0,http://www.phoenix.edu/,UNIVERSITY OF PHOENIX -SANDY SPRINGS LEARNING CENTER,33.9800744,-84.3414054,Success
325,8350,1500 N. PATTERSON ST,VALDOSTA,GA,31698.0,http://www.valdosta.peachnet.edu/,VALDOSTA STATE COLLEGE,30.847781623351104,-83.2873212298332,Success
326,7106,8001 LAKES BLVD,KINGSLAND,GA,31548.0,http://www.valdosta.edu/,VALDOSTA STATE UNIVERSITY-CAMDEN CENTER,30.790653999999996,-81.711294,Success
327,7251,"23RD FSS/FSD, 3010 ROBINSON ROAD",MOODY AFB,AF,1518.0,http://www.wiregrass.edu/,WIREGRASS GA TECHNICAL COLLEGE,42.120891,-72.11024300000001,Success
328,9424,ARGOSY UNIVERSITY,1001 BISHOP STREET,BI,400.0,808-791-5231,ARGOSY UNIVERSITY,0.0,0.0,Unmatchable
329,8742,"1001 BISHOP STREET, 400 ASB TOWER",HONOLULU,HI,96813.0,http://www.argosyu.edu/,ARGOSY UNIVERSITY,21.308414771764397,-157.861489567587,Success
330,7124,EDUCATION CENTER YANO HALL,SCHOFIELD BARRACKS,BA,96857.0,http://www.hpu.edu/,HAWAII PACIFIC UNIVERSITY,21.494722,-158.066346,Success
331,7107,"BUILDING 679, 2ND FLOOR, ROOM 207",PEARL HARBOR,HA,4673.0,http://www.hpu.edu/,HAWAII PACIFIC UNIVERSITY,44.329116,-68.708409,Success
332,7120,"FIFTH STREET, BUILDING 220",MCBH KANEOHE,KA,96863.0,http://www.hpu.edu/,HAWAII PACIFIC UNIVERSITY,21.388479999999998,-157.755014,Success
333,7115,900 HANGER AVENUE,HICKAM AFB,AF,5256.0,http://www.hpu.edu/,HAWAII PACIFIC UNIVERSITY,0.0,0.0,ExceptionOccurred
334,9167,"1060 BISHOP STREET, SUITE 600",HONOLULU,HI,2810.0,http://www.hpu.edu/,HAWAII PACIFIC UNIVERSITY - DOWNTOWN HONOLULU CAMPUS,23.4693111133922,-165.288538868737,Success
335,7133,"BUILDING 102, ROOM 111",TRIPLER AMC,AM,96859.0,http://www.hpu.edu/,HAWAII PACIFIC UNIVERSITY - TRIPLER,21.347002,-157.872476,Success
336,9827,"1601 KAPIOLANI BOULEVARD, SUITE 1000",HONOLULU,HI,96814.0,http://www.icchawaii.edu/,INTERCULTURAL COMMUNICATIONS COLLEGE,21.2918635797241,-157.839874087583,Success
337,9833,KAUAI COMMUNITY COLLEGE,3,KA,,808-245-8306,KAUAI COMMUNITY COLLEGE,0.0,0.0,Unmatchable
338,8522,"745 FORT STREET, SUITE 2000",HONOLULU,HI,96813.0,http://www.phoenix.edu/,UNIVERSITY OF PHOENIX  HAWAII CAMPUS - HONOLULU,21.314718,-157.853702,Success
339,8999,"949 KAMOKILA BLVD, SUITE 101",KAPOLEI,HI,96707.0,http://www.phoenix.edu/,UNIVERSITY OF PHOENIX - KAPOLEI LEARNING CENTER,21.333744600000003,-158.0813332,Success
340,8215,95-1091 AINAMAKUA DRIVE,MILILANI,HI,96789.0,http://www.wbu.edu/colleges-in-hawaii/,WAYLAND BAPTIST UNIVERSITY,21.447784,-158.023645,Success
341,9508,1310 19TH AVE NW,CLINTON,IA,52732.0,http://www.ashford.edu,ASHFORD UNIVERSITY- IOWA CAMPUS,41.849037,-90.208697,Success
342,8316,1550 CLARK DRIVE,DUBUQUE,IA,3198.0,http://www.clarke.edu/,CLARKE UNIVERSITY,42.509305,-90.69065909999999,Success
343,9818,1200 GRANDVIEW AVENUE,DES MOINES,MO,50316.0,http://www.grandview.edu/,GRAND VIEW UNIVERSITY,41.607822,-93.597425,Success
344,8076,7105 NW 70TH AVENUE,JOHNSTON,IA,50131.0,http://www.grandview.edu/,GRAND VIEW UNIVERSITY,41.688711,-93.7120298,Success
345,8971,525 GRANDVIEW AVE. TRUSTEE HALL,OTTUMWA,IA,52501.0,http://www.ibcc.cc.ia.us/,INDIAN HILLS COMMUNITY COLLEGE,41.0441107007501,-92.3964307754306,Success
346,9026,300 SOUTH 18TH STREET,ESTHERVILLE,IA,51334.0,http://www.ilcc.cc.ia.us/,IOWA LAKES COMMUNITY COLLEGE,43.3973035,-94.81800240000001,Success
347,9634,1801 E KIMBERLY RD #1,DAVENPORT,IA,52807.0,http://www.kaplanuniversity.edu/davenport-iowa.aspx,KAPLAN UNIVERSITY - DAVENPORT (MAIN CAMPUS),41.5549560434731,-90.55064664175372,Success
348,8835,1501 WEST TOWNLINE STREET,CRESTON,IA,50801.0,http://www.swcc.cc.ia.us/,SOUTHWESTERN COMMUNITY COLLEGE,41.0712225614294,-94.3797293236897,Success
349,8291,2000 UNIVERSITY AVENUE,DUBUQUE,IA,52001.0,http://www.dbq.edu/,THE UNIVERSITY OF DUBUQUE,42.4978425,-90.69321479999999,Success
350,8844,250 CEF / 30 S. DUBUQUE STREET,IOWA CITY,CI,52242.0,http://www.uiowa.edu/,UNIVERSITY OF IOWA,41.664405,-91.542152,Success
351,8937,125 STUDENT SERVICES,CEDAR FALLS,FA,383.0,http://www.uni.edu/,UNIVERSITY OF NORTHERN IOWA,0.0,0.0,ExceptionOccurred
352,9500,"5000 WESTOWN PKWY, SUITE 200",WEST DES MOINES,DE,50266.0,http://uiu.edu/locations/desmoines/index.html,UPPER IOWA UNIVERSITY-DES MOINES,41.5866,-93.765743,Success
353,7740,3563 UNIVERSITY AVENUE,WATERLOO,IA,50701.0,http://www.uiu.edu,UPPER IOWA UNIVERSITY-WATERLOO CENTER,42.5032473337384,-92.3955442399467,Success
354,8284,4647 STONE AVE,SIOUX CITY,CI,51106.0,http://www.witcc.edu/,WESTERN IOWA TECH. COMMUNITY COLLEGE,42.4792541215193,-96.3460156134399,Success
355,9642,201 TRUEBLOOD AVENUE,OSKALOOSA,IA,52577.0,http://www.wmpenn.edu/,WILLIAM PENN UNIVERSITY,41.3078520283166,-92.64618863979229,Success
356,9486,"1275 NORTHWEST 128 STREET, SUITE 200",CLIVE,IA,50325.0,http://www.wmpenn.edu/,WILLIAM PENN UNIVERSITY COLLEGE FOR WORKING ADULTS,41.6024025850834,-93.7929279949489,Success
357,9066,1910 UNIVERSITY DRIVE,BOISE,ID,83725.0,http://aae.boisestate.edu/testing/,BOISE STATE UNIVERSITY,43.6037269,-116.20477849999999,Success
358,7132,"665 FALCON STREET, 366 MSS/DPE",MOUNTAIN HOME AFB,HO,83648.0,https://extendedstudies.boisestate.edu/mountainhome/mtn-home-national-testing-services/,BOISE STATE UNIVERSITY - MOUNTAIN HOME AFB,43.051895987270406,-115.85397544350799,Success
359,9489,"MEYERHOEFFER BUILDING, 315 FALLS AVENUE",TWIN FALLS,FA,83303.0,http://www.csi.edu/,COLLEGE OF SOUTHERN IDAHO,42.560846999999995,-114.46481499999999,Success
360,9173,"921 S. 8TH , 2ND FLOOR, SOUTH SIDE",POCATELLO,ID,83209.0,http://www.isu.edu/,IDAHO STATE UNIVERSITY,42.875640000000004,-112.47088000000001,Success
361,8434,623 HOLLY STREET,NAMPA,ID,5897.0,http://www.nnu.edu/,NORTHWEST NAZARENE UNIVERSITY,43.582381,-116.5638753,Success
362,8008,"CHICAGO, IL   60659",773,,268.0,http://www.assu.us/,ASSU/COGNITIVE TESTING CENTER,0.0,0.0,Unmatchable
363,8023,"6006 WEST 159TH STREET, BUILDING B, 2ND FLOOR",OAK FOREST,FO,60452.0,http://www.assu.us/,ASSU/COGNITIVE TESTING CENTER,41.602834807824394,-87.7651215696601,Success
364,8986,9501 S. MARTIN LUTHER KING DRIVE,CHICAGO,IL,1598.0,http://www.csu.edu/,CHICAGO STATE UNIVERSITY,41.8386102108281,-87.6866108713176,Success
365,9094,"226 W JACKSON BLVD, RM 912",CHICAGO,IL,60606.0,http://www.ccc.edu/,CITY COLLEGES OF CHICAGO,41.8781994241333,-87.6346622463504,Success
366,9107,"425 FAWELL BOULEVARDSPECIALIZED TESTING, BIC 2407",GLEN ELLYN,EL,60137.0,http://www.cod.edu/,COLLEGE OF DUPAGE,41.871806,-88.065073,Success
367,7900,1120 S. MILWAUKEE AVE,VERNON HILLS,HI,60061.0,http://www.clcillinois.edu/southlake/,COLLEGE OF LAKE COUNTY,42.234248,-87.970272,Success
368,9109,19351 WEST WASHINGTON ST,GRAYSLAKE,IL,60030.0,http://www.clcillinois.edu/,COLLEGE OF LAKE COUNTY,42.3604744141572,-88.00945269595199,Success
369,7140,"2221 MCDONOUGH DRIVE, BUILDING 617, ROOM 209",GREAT LAKES,LA,60088.0,http://www.clcillinois.edu/,COLLEGE OF LAKE COUNTY - GREAT LAKE NAVAL BASE,42.308646,-87.854501,Success
370,9546,33 NORTH GENESEE STREET,WAUKEGAN,IL,60085.0,http://www.clcillinois.edu/,COLLEGE OF LAKE COUNTY - LAKESHORE CAMPUS,42.360001881337794,-87.8312550734262,Success
371,9857,446 NORTH ROUTE 31,CRYSTAL LAKE,LA,60012.0,http://www.ccis.edu/nationwide/crystallake/,COLUMBIA COLLEGE,42.27,-88.30422,Success
372,7735,"1225 TRI-STATE PARKWAY, STE 560",GURNEE,IL,60031.0,http://www.ccis.edu/lakecounty/,COLUMBIA COLLEGE,42.374962498988104,-87.9479293223888,Success
373,7820,1221 N. SWIFT ROAD,ADDISON,IL,60101.0,http://www.devry.edu/,DEVRY UNIVERSITY,41.9448982890675,-88.0418175633351,Success
374,9133,"600 LINCOLN AVE., RM 2100, NINTH STREET HALL",CHARLESTON,IL,61920.0,http://www.eiu.edu/,EASTERN ILLINOIS UNIVERSITY,39.604167,-88.101667,Success
375,8536,1 UNIVERSITY PARKWAY,UNIVERSITY PARK,PA,60484.0,http://www.govst.edu/testing-center/,GOVERNOR\\'S STATE UNIVERSITY,41.466347,-87.698762,Success
376,8639,2992 WEST PEARL CITY RD,FREEPORT,IL,61032.0,http://www.highland.cc.il.us/,HIGHLAND COMMUNITY COLLEGE,42.2824628271627,-89.6675481385758,Success
377,8707,"1 COLLEGE DRIVE, TESTING CENTER ROOM L220",EAST PEORIA,PE,61635.0,http://www.icc.edu/,ILLINOIS CENTRAL COLLEGE,40.708299,-89.522384,Success
378,8699,"5407 N. UNIVERSITY STREET, ARBOR 103",PEORIA,IL,61635.0,http://icc.edu/,ILLINOIS CENTRAL COLLEGE - NORTH CAMPUS,40.7528671237303,-89.61218753837109,Success
379,9769,"ILLINOIS STATE UNIVERSITY FELL HALL, ROOM 346",NORMAL,IL,4060.0,http://www.ilstu.edu/,ILLINOIS STATE UNIVERSITY,40.5219700681844,-88.98706682265329,Success
380,9502,5800 GODFREY RD,GODFREY,IL,62035.0,http://www.lc.cc.il.us/,LEWIS & CLARK COMMUNITY COLLEGE,38.9509213635944,-90.1908869725769,Success
381,9108,5250 SHEPARD ROAD,SPRINGFIELD,IL,62794.0,http://www.llcc.edu/,LINCOLN LAND COMMUNITY COLLEGE,39.761841,-89.631213,Success
382,8270,"122 SOUTH MICHIGAN AVENUE, SUITE 3005",CHICAGO,IL,60603.0,http://www.nl.edu/transferinfo/creditbyexamination/,NATIONAL LOUIS UNIVERSITY,41.880538003895296,-87.62417085971691,Success
383,8586,1000 CAPITAL DRIVE,WHEELING,IL,60090.0,http://www.nl.edu/transferinfo/creditbyexamination/,NATIONAL LOUIS UNIVERSITY,42.111319099999996,-87.910625,Success
384,8340,850 WARRENVILLE ROAD,LISLE,IL,1356.0,http://www.nl.edu/transferinfo/creditbyexamination/,NATIONAL-LOUIS UNIVERSITY,41.8091084,-88.07010679999999,Success
385,9530,ADAMS 128,DEKALB,IL,1204.0,http://www.niu.edu/,NORTHERN ILLINOIS UNIVERSITY,41.9306139,-88.74783000000001,Success
386,9992,ONE COLLEGE PARK,DECATUR,IL,62521.0,http://www.richland.edu/,RICHLAND COMMUNITY COLLEGE,39.827104,-88.924086,Success
387,8549,3301 NORTH MULFORD ROAD,ROCKFORD,IL,61114.0,http://www.rockvalleycollege.edu/,ROCK VALLEY COLLEGE,42.30850673078329,-88.9993749541255,Success
388,9649,173 ILLINOIS ROUTE 2,DIXON,IL,9188.0,http://www.svcc.edu/,SAUK VALLEY COMMUNITY COLLEGE,41.843810888003,-89.47846441683079,Success
389,9318,"TEST SERVICES, MAILCODE 3703",CARBONDALE,IL,62901.0,http://testingservices.siu.edu/,SOUTHERN ILLINOIS UNIVERSITY,37.728408,-89.222946,Success
390,8242,15800 SOUTH STATE STREET,SOUTH HOLLAND,HO,60473.0,http://www.southsuburbancollege.edu/,SOUTH SUBURBAN COLLEGE,41.607026320783895,-87.6171309847504,Success
391,7294,"SCOTT AFB, IL   62225-1607",618,,6677.0,http://www.swic.edu/,SOUTHWESTERN ILLINOIS COLLEGE,0.0,0.0,Unmatchable
392,8026,"1431 OPUS PLACE, SUITE 300",DOWNERS GROVE,GR,60515.0,http://www.strayer.edu/,STRAYER UNIVERSITY,41.8279148117715,-88.0247922656364,Success
393,8580,"2245 SEQUOIA DRIVE, SUITE 301-A",AURORA,IL,60506.0,http://www.strayer.edu/,STRAYER UNIVERSITY,41.7924525499773,-88.3647516768673,Success
394,8015,"1101 PERIMETER DRIVE, SUITE 300",SCHAUMBURG,IL,60173.0,http://www.strayer.edu/,STRAYER UNIVERSITY,42.0491708,-88.0327093,Success
395,8570,2065 HALF DAY ROAD,DEERFIELD,IL,60015.0,http://www.tiu.edu/,TRINITY INTERNATIONAL UNIVERSITY,42.2000685158846,-87.87773960294321,Success
396,8069,2000 FIFTH AVE,RIVER GROVE,GR,60171.0,http://www.triton.edu/,TRITON COLLEGE,41.9130037977828,-87.8402030449633,Success
397,8584,"610 E. JOHN ST., ROOM G1, TURNER STUDENT SERVICES BLDG",CHAMPAIGN,IL,61820.0,http://www.uiu.edu/,UNIVERSITY OF ILLINOIS - URBANA CHAMPAIGN,40.109170276259896,-88.23020893614219,Success
398,9024,203 N. LASALLE,CHICAGO,IL,60601.0,http://www.phoenix.edu/,UNIVERSITY OF PHOENIX,41.885830199450204,-87.63236050844891,Success
399,8656,500 WILCOX STREET,JOLIET,IL,60435.0,http://www.stfrancis.edu/,UNIVERSITY OF ST. FRANCIS,41.5328922,-88.0981506,Success
400,8210,1161 TEBALA BLVD,ROCKFORD,IL,61108.0,http://www.uiu.edu/locations/educationcenters/uscenters/rockford.html,UPPER IOWA UNIVERSITY- ROCKFORD CENTER,42.251933,-89.029605,Success
401,8767,RT.47 AT WAUBONSEE DRIVE,SUGAR GROVE,GR,60554.0,http://www.waubonsee.edu,WAUBONSEE COMMUNITY COLLEGE,41.771338,-88.459795,Success
402,7220,3300 RIVER DRIVE ROOM 2215,MOLINE,IL,61265.0,http://www.wiu.edu/qc/,WESTERN ILLINOIS UNIVERSITY,41.514470970005895,-90.49085335071449,Success
403,8488,102 MEMORIAL HALL,MACOMB,IL,61455.0,http://www.wiu.edu,WESTERN ILLINOIS UNIVERSITY,40.457219,-90.674006,Success
404,8018,7215 GRAPE ROAD,GRANGER,IN,46530.0,http://www.assu.us/,ASSU/COGNITIVE TESTING CENTER,41.742276000000004,-86.16169599999999,Success
405,8681,"11350 N. MERIDIAN STREET, SUITE 200",CARMEL,IN,46032.0,http://www.cuw.edu/,CONCORDIA UNIVERSITY - INDIANAPOLIS CENTER,39.9550431476842,-86.1580134706583,Success
406,9995,1700 S. MAIN STREET,GOSHEN,IN,46526.0,http://www.goshen.edu/,GOSHEN COLLEGE,41.5654029138484,-85.8284927689352,Success
407,7769,200 SEMINARY DRIVE,WINONA LAKE,LA,46590.0,http://www.grace.edu/,GRACE COLLEGE & THEOLOGICAL SEMINARY,41.219507,-85.818519,Success
408,8034,2303 COLLEGE AVE,HUNTINGTON,IN,1299.0,http://www.huntington.edu/,HUNTINGTON UNIVERSITY,40.880852844833704,-85.50645389479,Success
409,9521,1600 EAST WASHINGTON BOULEVARD,FORT WAYNE,WA,46803.0,http://www.indianatech.edu/,INDIANA INSTITUTE OF TECHNOLOGY,41.070631,-85.101842,Success
410,8206,"UNIVERSITY TESTING, ERICKSON HALL 231, 218 NORTH SIXTH STREET",TERRE HAUTE,HA,47809.0,http://www.indstate.edu/,INDIANA STATE UNIVERSITY,39.470391,-87.40929399999999,Success
411,8726,"KOKOMO, IN   46904",800,,7459.0,http://www.iuk.edu/,INDIANA UNIVERSITY,0.0,0.0,Unmatchable
412,8562,3400 BROADWAY,GARY,IN,46408.0,http://www.iun.edu/,INDIANA UNIVERSITY - NORTHWEST,41.5567045005009,-87.33663508543471,Success
413,9544,4601 CENTRAL AVENUECC ROOM 156H,COLUMBUS,IN,47203.0,http://www.iupuc.edu/,INDIANA UNIVERSITY PURDUE UNIVERSITY COLUMBUS,39.233901,-85.876002,Success
414,8683,"620 UNION DRIVE, SUITE G-003",INDIANAPOLIS,IN,5167.0,http://www.iupui.edu/,INDIANA UNIVERSITY-PURDUE UNIVERSITY - INDIANAPOLIS,39.7771004586194,-86.146347674196,Success
415,9556,"PO BOX 1033, WIEKAMP HALL 3183",SOUTH BEND,BE,7111.0,http://www.iusb.edu/,INDIANA UNIVERSITY - SOUTH BEND,40.72273,-74.232016,Success
416,8867,"UNIVERSITY CENTER SOUTH, STUDENT DEVELOPMENT CENTER, 4201 GRANT LINE RD, ROOM 203 (US 203)",NEW ALBANY,AL,47150.0,http://www.ius.edu/sdc,INDIANA UNIVERSITY - SOUTHEAST,38.307854999999996,-85.82684300000001,Success
417,9946,3449 JONATHAN MOORE PIKE,COLUMBUS,IN,47201.0,http://www.indwes.edu/,INDIANA WESLEYAN UNIVERSITY,39.199998129874395,-85.96346408029841,Success
418,9687,8211 W. JEFFERSON BLVD,FORT WAYNE,WA,46804.0,http://www.indwes.edu/,INDIANA WESLEYAN UNIVERSITY,41.055452,-85.243032,Success
419,8263,8415 GEORGIA STREET,MERRILLVILLE,IN,46410.0,http://www.indwes.edu/,INDIANA WESLEYAN UNIVERSITY,41.467461073192894,-87.32610605019511,Success
420,8781,"APS STUDENT SERVICES, 1900 WEST 50TH STREET",MARION,IN,46953.0,http://www.indwes.edu/,INDIANA WESLEYAN UNIVERSITY,40.532775,-85.658755,Success
421,9686,3777 PRIORITY WAY SOUTH DRIVE,INDIANAPOLIS,IN,46240.0,http://www.indwes.edu/,INDIANA WESLEYAN UNIVERSITY - INDIANAPOLIS NORTH CAMPUS,39.9195831626254,-86.1018144955356,Success
422,7269,"FORT WAYNE, IN   76805",260,,2012.0,http://www.ivytech.edu/,IVY TECH COMMUNITY COLLEGE,0.0,0.0,Unmatchable
423,8628,3401 FIRST AVENUE,EVANSVILLE,IN,47710.0,http://www.ivytech.edu/,IVY TECH COMMUNITY COLLEGE,38.0092937003894,-87.5741724311362,Success
424,8713,3701 DEAN DRIVE,FT WAYNE,WA,46385.0,http://www.ivytech.edu/,IVY TECH COMMUNITY COLLEGE,41.473056,-87.061111,Success
425,8795,4475 CENTRAL AVE,COLUMBUS,IN,47203.0,http://www.ivytech.edu/,IVY TECH COMMUNITY COLLEGE,39.24979902566721,-85.9041066898394,Success
426,7265,"BLOOMINGTON, IN   47404",812,,6137.0,http://www.distancetesting-bloomington@lists.ivytech.edu,IVY TECH COMMUNITY COLLEGE,41.584485,-72.865338,Success
427,7268,3401 FIRST AVENUE,EVANSVILLE,IN,47710.0,http://www.ivytech.edu/,IVY TECH COMMUNITY COLLEGE,38.0092937003894,-87.5741724311362,Success
428,7266,"COLUMBUS, IN   47203",812,,5211.0,http://www.ivytech.edu/,IVY TECH COMMUNITY COLLEGE,0.0,0.0,Unmatchable
429,7276,590 IVY TECH DRIVE,MADISON,IN,47250.0,http://www.ivytech.edu/,IVY TECH COMMUNITY COLLEGE,38.7819149765905,-85.37555481265491,Success
430,7272,1701 TOUBY PIKE,KOKOMO,IN,46901.0,http://www.ivytech.edu/,IVY TECH COMMUNITY COLLEGE,40.502584332747396,-86.1031739561233,Success
431,7275,1 IVY TECH WAY,LOGANSPORT,IN,46947.0,http://www.ivytech.edu/,IVY TECH COMMUNITY COLLEGE,40.789744,-86.408796,Success
432,7267,22531 CR 18,GOSHEN,IN,46528.0,http://www.ivytech.edu/,IVY TECH COMMUNITY COLLEGE,41.65964876393279,-85.9006676060615,Success
433,7271,"9301 E. 59TH STREET, ROOM 152",INDIANAPOLIS,IN,46216.0,http://www.ivytech.edu/,IVY TECH COMMUNITY COLLEGE,39.8620776184146,-86.0042998063557,Success
434,7289,920 COUNTY LINE ROAD,BATESVILLE,IN,47006.0,http://www.ivytech.edu/,IVY TECH COMMUNITY COLLEGE,39.3010980408295,-85.2325224454541,Success
435,7290,915 S. ZINC MILL ROAD,GREEN CASTLE,CA,46135.0,http://www.ivytech.edu/,IVY TECH COMMUNITY COLLEGE,39.64758,-86.86721999999999,Success
436,7277,"MARION, IN   46952",765,,3319.0,http://www.ivytech.edu/,IVY TECH COMMUNITY COLLEGE,0.0,0.0,Unmatchable
437,7278,4201 S. COWAN ROAD,MUNCIE,IN,47302.0,http://www.ivytech.edu/,IVY TECH COMMUNITY COLLEGE,40.1566144807552,-85.40501897100359,Success
438,7279,2431 S. CRABTREE DRIVE,PRINCETON,IN,47670.0,http://www.ivytech.edu/,IVY TECH COMMUNITY COLLEGE,38.353193,-87.56725899999999,Success
439,7285,3100 IVY TECH DRIVE,VALPARAISO,IN,46383.0,http://www.ivytech.edu/,IVY TECH COMMUNITY COLLEGE,41.489214000000004,-87.074602,Success
440,7286,2545 SILVEUS CROSSING,WARSAW,IN,46580.0,http://www.ivytech.edu/,IVY TECH COMMUNITY COLLEGE,41.2708751415379,-85.8718857997933,Success
441,7283,1034 31ST STREET,TELL CITY,CI,47586.0,http://www.ivytech.edu/,IVY TECH COMMUNITY COLLEGE,37.955260029756495,-86.73938346209559,Success
442,7264,815 EAST 60TH STREET,ANDERSON,IN,46013.0,http://www.ivytech.edu/,IVY TECH COMMUNITY COLLEGE - ANDERSON,40.054254195376295,-85.67737296029321,Success
443,9316,1815 EAST MORGAN STREET ROOM M100,KOKOMO,IN,46901.0,http://www.ivytech.edu/,IVY TECH COMMUNITY COLLEGE - KOKOMO CAMPUS,40.505568872142796,-86.1097947107559,Success
444,9930,3101 S. CREASY LANE,LAFAYETTE,IN,47905.0,http://www.ivytech.edu/,IVY TECH COMMUNITY COLLEGE - LAFAYETTE CAMPUS,40.384000937172104,-86.842569200348,Success
445,8360,50 WALNUT STREET,LAWRENCEBURG,IN,47025.0,http://www.ivytech.edu/,IVY TECH COMMUNITY COLLEGE - LAWRENCEBURG CAMPUS,39.092241557535296,-84.84691239089071,Success
446,8115,2357 CHESTER BLVD.MCDANIEL HALL RM.1128,RICHMOND,IN,47374.0,http://www.ivytech.edu/,IVY TECH COMMUNITY COLLEGE - RICHMOND CAMPUS,39.86060059879679,-84.8885621447952,Success
447,7281,8204 HIGHWAY 311,SELLERSBURG,IN,47172.0,http://www.ivytech.edu/,IVY TECH COMMUNITY COLLEGE - SELLERSBURG,38.3901122362243,-85.765165653194,Success
448,8487,8204 HIGHWAY 311PFAU HALL RM. G22,SELLERSBURG,IN,47172.0,http://www.ivytech.edu/,IVY TECH COMMUNITY COLLEGE - SELLERSBURG CAMPUS,38.392719,-85.760504,Success
449,8920,250 EAST SAMPLE STREET,SOUTH BEND,BE,46601.0,http://www.ivytech.edu/,IVY TECH COMMUNITY COLLEGE - SOUTH BEND CAMPUS,41.66514371474079,-86.2469739922797,Success
450,8196,IVY TECH STATE COLLEGE,1440 EAST 35TH AVE,EA,,888) IVY-LINE,IVY TECH STATE COLLEGE,0.0,0.0,Unmatchable
451,8388,1700 E. INDUSTRIAL DRIVE,TERRE HAUTE,HA,47802.0,https://www.ivytech.edu/,IVY TECH STATE COLLEGE - TERRE HAUTE CAMPUS,39.342640261025295,-87.39318066554951,Success
452,9333,3200 COLD SPRING ROAD,INDIANAPOLIS,IN,46222.0,http://www.marian.edu/,MARIAN UNIVERSITY,39.810899504260995,-86.2050809154462,Success
453,8445,138 N. LUCRETIA ST,OAKLAND CITY,CI,1099.0,http://www.oak.edu/,OAKLAND CITY UNIVERSITY,0.0,0.0,ExceptionOccurred
454,9328,1 ST. MARY OF WOODS COLL,ST,MA,47876.0,http://www.smwc.edu/,SAINT MARY OF THE WOODS,39.511739,-87.474237,Success
455,8493,9025 NORTH RIVER RD.,INDIANAPOLIS,IN,46240.0,http://www.strayer.edu/,STRAYER UNIVERSITY,39.9182757079669,-86.096433215345,Success
456,9520,"1400 EAST HANNA AVENUE, ESH HALL, ROOM 131",INDIANAPOLIS,IN,46227.0,http://www.uindy.edu/,UNIVERSITY OF INDIANAPOLIS,39.708045419427705,-86.13748636472309,Success
457,8724,601 NORTH SHORTRIDGE ROAD,INDIANAPOLIS,IN,46219.0,http://www.veritycollegeeducation.org,VERITY COLLEGE EDUCATION,39.7797385612145,-86.0397067220278,Success
458,9382,"1002 NORTH FIRST ST, SHAKE LRC - 22",VINCENNES,IN,47591.0,http://www.vinu.edu/,VINCENNES UNIVERSITY,38.686666733421,-87.52088935915751,Success
459,9175,"3450 N. ROCK ROAD, BLDG 400",WICHITA,KS,67226.0,http://www.bakeru.edu/,BAKER UNIVERSITY,37.7453983454429,-97.2445125588265,Success
460,9696,7301 COLLEGE BLVD. STE. 120,OVERLAND PARK,PA,66210.0,http://www.bakeru.edu/,BAKER UNIVERSITY,38.9247,-94.67832,Success
461,7254,2641 SW WANAMAKER ROAD,TOPEKA,KS,66614.0,http://www.bakeru.edu/,BAKER UNIVERSITY - TOPEKA,39.0189483001193,-95.7629597050868,Success
462,7201,"FORT RILEY LEARNING SERVICES AND MILITARY OPERATIONS, BUILDING 211 CUSTER AVENUE ROOM 211",FORT RILEY,RI,66442.0,http://www.bartonccc.edu/,BARTON COMMUNITY COLLEGE,39.05664,-96.77022,Success
463,7221,53474 LAWRENCE COURT,MCCONNELL AFB,AF,67221.0,http://www.butlercc.edu/,BUTLER COMMUNITY COLLEGE,37.6285824808239,-97.2458104359795,Success
464,9074,HAVERHILL RD/TOWANDA AVE,EL DORADO,DO,67042.0,http://www.butlercc.edu/,BUTLER COUNTY COMMUNITY COLLEGE,37.821764,-96.865086,Success
465,9151,600 PARK STREET,HAYS,KS,4099.0,http://www.fhsu.edu/,FORT HAYS STATE UNIVERSITY,38.8805266367822,-99.32094280249251,Success
466,7346,16025 W 113TH STREET,LENEXA,KS,66219.0,http://www.grantham.edu/,GRANTHAM UNIVERSITY,38.9232329082362,-94.7714357651571,Success
467,9186,"HOLTON HALL, RM 101B",MANHATTAN,KS,66506.0,http://www.ksu.edu/,KANSAS STATE UNIVERSITY,39.185143,-96.571471,Success
468,8346,200 S. 14TH STREET,PARSONS,KS,67357.0,http://labette.edu/,LABETTE COMMUNITY COLLEGE,37.3391183332844,-95.25588465210821,Success
469,8875,1415 ANDERSON AVE,MANHATTAN,KS,4081.0,http://www.mccks.edu/,MANHATTAN CHRISTIAN COLLEGE,39.1858363,-96.5791712,Success
470,8801,2030 E. COLLEGE WAY,OLATHE,KS,66062.0,http://www.mnu.edu/,MIDAMERICA NAZARENE UNIVERSITY,38.87442229581129,-94.78520208762251,Success
471,8655,1001 S. CEDAR,OTTAWA,KS,66067.0,http://www.ottawa.edu/,OTTAWA UNIVERSITY,38.6028559020185,-95.2658149716679,Success
472,9356,"4370 WEST 109TH STREET, SUITE 200",OVERLAND PARK,PA,66211.0,http://www.ottawa.edu,OTTAWA UNIVERSITY - OVERLAND PARK CAMPUS,38.924984,-94.64217,Success
473,9538,"1701 S. BROADWAY, WHITESITT HALL 206 B",PITTSBURG,KS,66762.0,http://www.pittstate.edu/,PITTSBURG STATE UNIVERSITY,37.412275,-94.698359,Success
474,9407,2562 CENTENNIAL RD,SALINA,KS,67401.0,http://www.salinatech.edu/,SALINA AREA TECHNICAL COLLEGE,38.7943988506128,-97.63447554653472,Success
475,8876,1801 NORTH KANSAS,LIBERAL,KS,1137.0,http://www.scc.edu/,SEWARD COUNTY COMMUNITY COLLEGE,37.0468242706581,-100.92883822525299,Success
476,9534,"7348 WEST 21ST STREET, SUITE 117",WICHITA,KS,67205.0,http://www.tabor.edu/,TABOR COLLEGE WICHITA,37.7230998922411,-97.25202038028091,Success
477,9543,1300 SUNNYSIDE AVENUE SUMMERFIELD HALL SUITE 350,LAWRENCE,KS,66045.0,http://www.ku.edu,UNIVERSITY OF KANSAS,38.9556529,-95.24977290000001,Success
478,8746,1700 SW COLLEGE AVE,TOPEKA,KS,66621.0,http://www.washburn.edu,WASHBURN UNIVERSITY,39.033339971789296,-95.701567235778,Success
479,9391,"1845 NORTH FAIRMOUNT, 320 GRACE WILKIE HALL",WICHITA,KS,91.0,http://www.wichita.edu/,WICHITA STATE UNIVERSITY,37.6906938,-97.3426776,Success
480,8577,1400 COLLEGE DR,ASHLAND,KY,41101.0,http://www.ashlandcc.edu/,ASHLAND COMMUNITY COLLEGE,38.4685875014184,-82.651801662053,Success
481,9118,164 OPPORTUNITY WAY,LEXINGTON,KY,40356.0,http://www.bluegrass.kctcs.edu/,BLUEGRASS COMMUNITY AND TECHNICAL COLLEGE,38.067580113874,-84.5373981494853,Success
482,9288,"FORT CAMPBELL CENTER, PO BOX 565",FORT CAMPBELL,CA,42223.0,http://www.erau.edu/,EMBRY-RIDDLE AERONAUTICAL UNIVERSITY,36.654747,-87.46266800000001,Success
483,8492,500 TECHNOLOGY WAY,FLORENCE,KY,41042.0,http://www.gateway.kctcs.edu/,GATEWAY COMMUNITY & TECHNICAL COLLEGE,38.986125,-84.64828100000001,Success
484,7171,"ENGLISH ARMY EDUCATION CENTER, 202 BASTOGNE AVENUE, ROOM 1218",FORT CAMPBELL,CA,42225.0,http://hopkinsville.kctcs.edu,HOPKINSVILLE COMMUNITY COLLEGE,37.2400490280629,-119.503235535758,Success
485,9947,1500 ALLIANT AVENUE,LOUISVILLE,KY,40299.0,http://www.indwes.edu/,INDIANA WESLEYAN UNIVERSITY,38.2220874,-85.5364403,Success
486,8568,400 E. MAIN ST. EXUM 106,FRANKFORT,KY,40601.0,http://kysu.edu/,KENTUCKY STATE UNIVERSITY,38.1994612964855,-84.85788079396391,Success
487,9768,99 POWELL ROAD EAST,MAYFIELD,KY,42066.0,http://www.mccks.edu/,MID-CONTINENT UNIVERSITY,36.8178999165988,-88.6486648894104,Success
488,8274,"1375 CHESTNUT ST., MURRAY, KY 42071 OAKLEY APPLIED SCIENCE BUILDING C 105",MURRAY,KY,9.0,http://www.murraystate.edu/testingcenter,MURRAY STATE UNIVERSITY,36.6126516052946,-88.32223071028092,Success
489,7910,"100 NUNN DR. UNIVERSITY CENTER BUILDING, ROOM. 101",HIGHLAND HEIGHTS,HE,41099.0,http://testing.nku.edu/,NORTHERN KENTUCKY UNIVERSITY,39.032312,-84.46336099999999,Success
490,7932,"7300 TURFWAY ROAD, SUITE 250",FLORENCE,KY,41042.0,http://www.strayer.edu/,STRAYER UNIVERSITY,39.011998768343794,-84.6293495915235,Success
491,9936,"2650 EASTPOINT PARKWAY, SUITE 100",LOUISVILLE,KY,40223.0,http://www.strayer.edu/,STRAYER UNIVERSITY,38.2845463,-85.50952120000001,Success
492,9550,333 THOMAS MORE PARKWAY,CRESTVIEW HILLS,HI,41017.0,http://www.thomasmore.edu/,THOMAS MORE COLLEGE,39.034253,-84.574476,Success
493,9548,"DAVIDSON HALL, ROOM 310, 106 EAST BRANDEIS STREET",LOUISVILLE,KY,40292.0,http://www.louisville.edu/,UNIVERSITY OF LOUISVILLE,38.231826,-85.669849,Success
494,7183,"63 QUARTERMASTER STREET - STE. 301, BUILDING 63,",FORT KNOX,KN,40121.0,http://www.louisville.edu/,UNIVERSITY OF LOUISVILLE - FORT KNOX,37.926575,-85.912788,Success
495,9906,1906 COLLEGE HEIGHTS BOULEVARD #11024,BOWLING GREEN,GR,42101.0,http://www.wku.edu/,WESTERN KENTUCKY UNIVERSITY,36.9867983527755,-86.45537474792259,Success
496,8845,"201 COMMUNITY COLLEGE DR RM 160, MAGNOLIA BLDG",BATON ROUGE,RO,70806.0,http://www.mybrcc.edu,BATON ROUGE COMMUNITY COLLEGE - MID-CITY CAMPUS,30.447682699999998,-91.137404,Success
497,8147,"6220 EAST TEXAS STREET, BUILDING D, ROOM 203",BOSSIER CITY,CI,71111.0,http://www.bpcc.edu/testingcenter,BOSSIER PARISH COMMUNITY COLLEGE,32.5382184550614,-93.6474111585393,Success
498,7287,723 DOUHET DRIVE ROOM 101,BARKSDALE AFB,AF,71111.0,http://www.bpcc.edu/testingcenter,BOSSIER PARISH COMMUNITY COLLEGE - BARKSDALE AFB,32.545307,-93.70476500000001,Success
499,7207,7460 COLORADO STREET,FT POLK,PO,71459.0,http://www.ctcd.edu/,CENTRAL TEXAS COLLEGE,30.995820000000002,-93.2469,Success
500,8327,"3864 SEVENTEENTH STREET, SUITE 100",METARIE,LA,70002.0,http://www.cuw.edu/,CONCORDIA UNIVERSITY WISCONSIN - NEW ORLEANS,30.008540399999998,-90.1719539,Success
501,8600,615 CITY PARK AVE,NEW ORLEANS,OR,70119.0,http://www.dcc.edu/,DELGADO COMMUNITY COLLEGE,29.974249,-90.087137,Success
502,9210,8100 HIGHWAY 71 SOUTH,ALEXANDRIA,LA,9121.0,http://www.lsua.edu/,LOUISIANA STATE UNIVERSITY AT ALEXANDRIA,31.293449100000004,-92.4701886,Success
503,8892,"21454 KOOP DRIVE, THIRD FLOOR",MANDEVILLE,LA,70471.0,http:// http://www.northshorecollege.edu,NORTHSHORE TECHNICAL COMMUNITY COLLEGE,30.4185323723776,-90.0440997591739,Success
504,8671,"100 COLLEGE STREET, STUDENT UNION ROOM 306",NATCHITOCHES,LA,71497.0,http://www.nsula.edu/,NORTHWESTERN STATE UNIVERSITY,31.755063,-93.10124,Success
505,9540,"900 B W. UNIVERSITY AVENUE, ROOM 172",HAMMOND,LA,70402.0,http://www.selu.edu/,SOUTHEASTERN LOUISIANA UNIVERSITY,30.519276428631102,-90.4753995494362,Success
506,8763,3050 MARTIN LUTHER KING DR,SHREVEPORT,LA,71107.0,http://www.sulsa.edu/,SOUTHERN UNIVERSITY,32.60862,-93.86208,Success
507,7948,SOUTHERN UNIVERSITY AT SHREVEPORT,3050 MARTIN LUTHER KING JR,MA,,http://www.susla.edu/,SOUTHERN UNIVERSITY AT SHREVEPORT,42.0968468579179,-71.51170183172229,Success
508,7970,"111 VETERANS MEMORIAL BOULEVARD, SUITE 420",METARIE,LA,70005.0,http://www.strayer.edu/,STRAYER UNIVERSITY,30.0012485,-90.124026,Success
509,8385,"ROOM 216, BUSINESS BUILDING, 2000 LAKESHORE DRIVE",NEW ORLEANS,OR,70148.0,http://www.uno.edu/,UNIVERSITY OF NEW ORLEANS,30.029171999999996,-90.06844699999999,Success
510,8531,1350 WEST ST,PITTSFIELD,MA,1201.0,http://www.berkshire.edu/,BERKSHIRE COMMUNITY COLLEGE,42.462667769306,-73.3144812639806,Success
511,8204,"10 SHAW ROAD, GROUND FLOOR , MAXWELL LIBRARY",BRIDGEWATER,MA,2325.0,http://www.bridgew.edu/testingservices/,BRIDGEWATER STATE UNIVERSITY,41.9866785873555,-70.9709439819455,Success
512,8123,"KITTREDGE CENTER, ROOM 204, 303 HOMESTEAD AVENUE",HOLYOKE,MA,1040.0,http://www.hcc.edu/,HOLYOKE COMMUNITY COLLEGE,42.204025,-72.630051,Success
513,9238,444 GREEN STREET,GARDNER,MA,1440.0,http://www.mwcc.mass.edu/,MOUNT WACHUSETT COMMUNITY COLLEGE,42.5931483741569,-71.987040965639,Success
514,9745,100 ELLIOT STREET,HAVERHILL,MA,1830.0,http://www.necc.mass.edu/,NORTHERN ESSEX COMMUNITY COLLEGE - HAVERHILL,42.7977050591842,-71.0511118659933,BrokenTie
515,8868,"1 FERNCROFT ROAD, ROOM DB 213",DANVERS,MA,1923.0,http://www.nscc.mass.edu/,NORTH SHORE COMMUNITY COLLEGE - DANVERS CAMPUS,42.593963552382,-70.9663555649219,Success
516,7256,300 BROAD STREET,LYNN,MA,1901.0,http://www.northshore.edu/,NORTH SHORE COMMUNITY COLLEGE - LYNN CAMPUS,42.460918,-70.943943,Success
517,7352,COAST GUARD AIR STATION CAPE COD BLDG.3164,CAPE COD,CO,2542.0,http://www.post.edu/,POST UNIVERSITY - COAST GUARD AIR STATION CAPE COD,41.65872,-70.56726,Success
518,9993,SUITE 1M4,BOSTON,MA,2129.0,http://www.springfieldcollege.edu/,SPRINGFIELD COLLEGE,42.33618,-71.10365999999999,Success
519,9771,"29 CHENNAULT STREET, BLDG. 1728",HANSCOM,MA,1731.0,http://www.park.edu/hans,"THE PARK UNIVERSITY, HANSCOM AFB CAMPUS",42.453933,-71.278811,Success
520,9136,"ONE VAN DE GRAAFF DR., STE 300",BURLINGTON,MA,1803.0,http://www.phoenix.edu/,UNIVERSITY OF PHOENIX,42.4831488068606,-71.19653734404321,Success
521,8326,"LEONARDTOWN CAMPUS - TESTING CENTER, 22950 HOLLYWOOD ROAD, BUILDING A, ROOM 103",LEONARDTOWN,MD,20650.0,http://www.csmd.edu/,COLLEGE OF SOUTHERN MARYLAND,38.297340000000005,-76.64862,Success
522,9555,8730 MITCHELL ROAD,LA PLATA,PL,20646.0,http://www.csmd.edu/,COLLEGE OF SOUTHERN MARYLAND,38.5646457084515,-77.0060056025449,Success
523,7845,"PRINCE FREDERICK CAMPUS, 115 JW WILLIAMS ROAD",PRINCE FREDERICK,FR,20678.0,http://www.csmd.edu/,COLLEGE OF SOUTHERN MARYLAND,38.53153,-76.586745,Success
524,9735,7932 OPOSSUMTOWN PIKE,FREDERICK,MD,21702.0,http://www.frederick.edu/,FREDERICK COMMUNITY COLLEGE,39.451459,-77.4188072,Success
525,9163,11400 ROBINWOOD DR,HAGERSTOWN,MD,21742.0,http://www.hagerstowncc.edu/,HAGERSTOWN COMMUNITY COLLEGE,39.6280656192231,-77.6653989438888,Success
526,9164,401 THOMAS RUN RD,BEL AIR,AI,21015.0,http://www.harford.edu/testing/,HARFORD COMMUNITY COLLEGE,39.5630294,-76.2867837,Success
527,8964,10901 LITTLE PATUXENT PKWY,COLUMBIA,MD,21044.0,http://www.howardcc.edu/,HOWARD COMMUNITY COLLEGE,39.215948100000006,-76.87976390000001,Success
528,9822,6602 PARK HEIGHTS AVENUE,BALTIMORE,MD,21215.0,http://maalotbaltimore.org/,MAALOT-BALTIMORE-ZAIDNER INSTITUTE,39.361203499999995,-76.6994917,Success
529,8496,"OFFICE OF CONTINUING EDUCATION, 5350 SPECTRUM DRIVE, SUITE A",FREDERICK,MD,21703.0,http://www.msmary.edu/,MOUNT SAINT MARY'S UNIVERSITY,39.366631,-77.46439699999999,Success
530,9762,NER ISRAEL RABBENICAL COLLEGE,400 MOUNT WILSON LANE,MO,,410-484-7807,NER ISRAEL RABBENICAL COLLEGE,38.3088593907541,-92.50820580553619,Success
531,9724,"TESTING OFFERED FOR STRAYER UNIVERSITY STUDENTS ONLY4710 AUTH PLACE, 1ST FLOOR, ROOM 220",SUITLAND,MD,20746.0,http://www.strayer.edu/,STRAYER UNIVERSITY,38.837308,-76.91874399999999,Success
532,8897,"500 REDLAND COURT, SUITE 100",OWINGS MILLS,MI,21117.0,http://www.strayer.edu/,STRAYER UNIVERSITY,39.428406,-76.769758,Success
533,9726,"9920 FRANKLIN SQUARE DRIVE, SUITE 200",BALTIMORE,MD,21236.0,http://www.strayer.edu/,STRAYER UNIVERSITY,39.3686565,-76.46136870000001,Success
534,9723,4 RESEARCH PLACEROCKVILLE MD 20850,ROCKVILLE,MD,20850.0,http://www.strayer.edu/,STRAYER UNIVERSITY,39.08592,-77.174389,Success
535,7766,"DSST HOURS (BY APPOINTMENT ONLY)TUESDAYS, WEDNESDAYS AND THURSDAYS10:00AM TO 6:00PM800 SOUTH ROLLING ROAD",BALTIMORE,MD,21228.0,http://www.ccbcmd.edu/testingappointment,THE COMMUNITY COLLEGE OF BALTIMORE COUNTY - CATONSVILLE CAMPUS,39.3279,-76.74396,Success
536,8007,"DSST HOURS (BY APPOINTMENT ONLY)TUESDAYS, WEDNESDAYS AND THURSDAYS10:00AM TO 6:00PM7201 ROSSVILLE BOULEVARD",BALTIMORE,MD,21237.0,http://www.ccbcmd.edu/testingappointment,THE COMMUNITY COLLEGE OF BALTIMORE COUNTY - ESSEX CAMPUS,39.34032,-76.5051,Success
537,7101,1413 ARKANSAS ROAD,ANDREWS AFB,AF,20762.0,http://www.umuc.edu/,UMUC - JOINT BASE ANDREWS,38.805042,-76.880984,Success
538,7253,BUILDING 8601 ZIMBORSKI AVENUE,FORT MEADE,ME,20755.0,http://www.umuc.edu/,UNIVERSITY OF MARYLAND UNIVERSITY COLLEGE,39.10968,-76.736935,Success
539,8338,1616 MCCORMICK DRIVE,LARGO,MD,20774.0,http://www.umuc.edu/,UNIVERSITY OF MARYLAND UNIVERSITY COLLEGE,38.9091250832425,-76.8458138950627,Success
540,7332,6865 DEERPATH ROAD,ELKRIDGE,MD,21075.0,http://www.umuc.edu/,UNIVERSITY OF MARYLAND UNIVERSITY COLLEGE - DORSEY STATION CENTER,39.180986100000005,-76.74751540000001,Success
541,8603,"1250 TURNER STJALBERT HALL, ROOM 300",AUBURN,ME,4210.0,http://www.cmcc.edu/,CENTRAL MAINE COMMUNITY COLLEGE,44.094188,-70.244511,Success
542,8982,33 EDGEMONT DRIVE,PRESQUE ISLE,IS,4769.0,https://www.nmcc.edu,NORTHERN MAINE COMMUNITY COLLEGE,46.694494799999994,-68.03447170000001,Success
543,8668,278 WHITES BRIDGE RD,STANDISH,ME,5263.0,http://www.sjcme.edu///,ST. JOSEPH'S COLLEGE,43.8266929,-70.4812238,Success
544,8612,46 UNIVERSITY DR,AUGUSTA,ME,9410.0,http://www.maine.edu/,UNIVERSITY OF MAINE,44.3388762,-69.7956577,Success
545,9354,23 UNIVERSITY DRIVE,FORT KENT,KE,4743.0,http://www.umfk.maine.edu/,UNIVERSITY OF MAINE,47.2510655,-68.58932800000001,Success
546,9553,96 FAIRMONT STREET240 LUTHER BONNEY HALL - TESTING CENTER,PORTLAND,ME,9300.0,http://www.usm.maine.edu/,UNIVERSITY OF SOUTHERN MAINE,43.6470805636735,-70.1682342256686,Success
547,9207,112 COLLEGE DRIVE,WELLS,ME,4090.0,http://www.yccc.edu,YORK COUNTY COMMUNITY COLLEGE,43.308521899999995,-70.5967942,Success
548,9623,665 JOHNSON STREET,ALPENA,MI,49707.0,http://www.alpenacc.edu/,ALPENA COMMUNITY COLLEGE,45.0794797321239,-83.4432914881845,Success
549,9572,123 BELL HALL,BERRIEN SPRINGS,SP,49104.0,http://www.andrews.edu/,ANDREWS UNIVERSITY,41.945755,-86.340672,Success
550,8997,1050 WEST BRISTOL ROAD,FLINT,MI,48507.0,http://www.baker.edu/,BAKER COLLEGE,42.9740808880034,-83.69619960611729,Success
551,9084,260 W. HOPKINS COURT,MOUNT PLEASANT,PL,48859.0,http://www.cmich.edu/,CENTRAL MICHIGAN UNIVERSITY,43.597602,-84.778009,Success
552,9918,"LIVONIA, MI   48152",734,,2800.0,http://www.davenport.edu/,DAVENPORT UNIVERSITY,0.0,0.0,Unmatchable
553,8296,200 S. GRAND AVENUE,LANSING,MI,48933.0,http://www.davenport.edu/,DAVENPORT UNIVERSITY - LANSING CAMPUS,42.732625105952,-84.55074807194529,Success
554,8413,6191 KRAFT AVENUE,GRAND RAPIDS,RA,49512.0,http://www.davenport.edu/,DAVENPORT UNIVERSITY W.A. LETTINGA CAMPUS,42.8512561851544,-85.5278336895763,Success
555,9564,27650 DEQUINDRE RD,WARREN,MI,5209.0,http://www.davenport.edu/,DAVENPORT UNIVERSITY - WARREN CAMPUS,42.4928046352082,-83.0270238627852,Success
556,9125,"1961 DELTA ROAD, D-101",UNIVERSITY CENTER,CE,48710.0,http://www.delta.edu/,DELTA COLLEGE,43.561826,-83.987515,Success
557,8665,6767 WEST &QUOT;O&QUOT; AVE,KALAMAZOO,MI,4070.0,https://www.kvcc.edu/,KALAMAZOO VALLEY COMMUNITY COLLEGE,43.570278,-70.38833299999999,Success
558,8187,450 NORTH AVENUE,BATTLE CREEK,CR,3397.0,http://www.kellogg.edu/,KELLOGG COMMUNITY COLLEGE,0.0,0.0,ExceptionOccurred
559,9578,4800 W 4 MILE ROAD,GRAYLING,MI,49738.0,http://www.kirtland.edu/,KIRTLAND COMMUNITY COLLEGE,44.660428,-84.727615,Success
560,8688,MAALOT DETROIT - DIVISION OF NEVE YERUSHALAYIM COLLEGE,14390 WEST TEN MILE ROAD,WE,,248-557-3185,MAALOT DETROIT - DIVISION OF NEVE YERUSHALAYIM COLLEGE,0.0,0.0,Unmatchable
561,9419,"WARREN, MI   48088",586,,7001.0,http://testing@macomb.edu,MACOMB COMMUNITY COLLEGE,40.577272,-74.276173,Success
562,9581,36600 SCHOOLCRAFT RD,LIVONIA,MI,48150.0,http://www.madonna.edu/,MADONNA UNIVERSITY,42.382327159039896,-83.40610281760951,Success
563,8871,556 EAST CIRCLE DRIVE ROOM 237,EAST LANSING,LA,48824.0,http://www.testingoffice.msu.edu/,MICHIGAN STATE UNIVERSITY,42.653979,-84.492032,Success
564,9077,1515 HOWARD ST,PETOSKEY,MI,49770.0,http://www.ncmich.edu/,NORTH CENTRAL MICHIGAN COLLEGE,45.3598602807253,-84.95498326578141,Success
565,9658,1701 E FRONT STREET,TRAVERSE CITY,CI,49686.0,https://www.nmc.edu/,NORTHWESTERN MICHIGAN COLLEGE,44.764261430629794,-85.58341883173429,Success
566,8059,18600 HAGGERTY RD,LIVONIA,MI,48152.0,http://www.schoolcraft.edu/,SCHOOLCRAFT COLLEGE,42.419309600000005,-83.4309376,Success
567,9321,"DOWAGIAC, MI   49047",269,,1347.0,http://www.swmich.edu/,SOUTHWESTERN MICHIGAN COLLEGE,42.557611,-72.518664,Success
568,8550,106 EAST MAIN ST,SPRING ARBOR,AR,49283.0,http://www.arbor.edu/,SPRING ARBOR UNIVERSITY,36.184568799999994,-94.13241670000001,Success
569,8913,80 LIVINGSTON BLVD,GAYLORD,MI,49735.0,http://www.phoenix.edu/,UNIVERSITY CENTER GAYLORD,44.987952,-84.675724,Success
570,8534,"8200 WEST OUTER DRIVE, 4001 MCNICHOLS",DETROIT,MI,900.0,http://www.udmercy.edu/,UNIVERSITY OF DETROIT - MERCY,41.931320914699,-83.329249903795,BrokenTie
571,8935,"26261 EVERGREEN ROAD, SUITE 500",SOUTHFIELD,MI,48076.0,http://www.phoenix.edu/,UNIVERSITY OF PHOENIX - DETROIT CAMPUS,42.482324,-83.2424364,Success
572,9029,1001 WOODWARD AVE,DETROIT,MI,48226.0,http://www.phoenix.edu/,UNIVERSITY OF PHOENIX - DOWNTOWN DETROIT LEARNING CENTER,42.3319716,-83.04766529999999,Success
573,9885,"4800 EAST HURON RIVER ROAD, SC 230C",ANN ARBOR,AR,48106.0,http://www.washtenaw.cc.mi.us/,WASHTENAW COMMUNITY COLLEGE,42.227952,-83.738851,Success
574,8120,1601 JEFFERSON ST.,ALEXANDRIA,MN,56308.0,http://www.alextech.edu/,ALEXANDRIA TECHNICAL AND COMMUNITY COLLEGE,45.874044027165496,-95.3731096184183,Success
575,8203,300 SPIRIT RIVER DRIVE SOUTH,CAMBRIDGE,MN,55008.0,http://www.anokaramsey.edu/,ANOKA-RAMSEY COMMUNITY COLLEGE - CAMBRIDGE CAMPUS,45.5624,-93.228686,Success
576,7903,11200 MISSISSIPPI BOULEVARD NW,COON RAPIDS,RA,55433.0,http://www.anokaramsey.edu/,ANOKA-RAMSEY COMMUNITY COLLEGE - COON RAPIDS CAMPUS,45.1749115928506,-93.3465533467461,Success
577,8783,3900 BETHEL DRIVE,ST,PA,55112.0,https://www.bethel.edu/adult-undergrad/academics/ways-to-earn-credit/exam-credits/,BETHEL UNIVERSITY,45.07938,-93.1872,Success
578,9110,1200 KENWOOD,DULUTH,MN,55811.0,http://www.css.edu/,COLLEGE OF ST. SCHOLASTICA,46.837379999999996,-92.2014,Success
579,9693,COOK COUNTY HIGHER EDUCATION,300 WEST 3RD STREET,WE,,218-387-3411,COOK COUNTY HIGHER EDUCATION,0.0,0.0,Unmatchable
580,7721,920 MAYOWOOD ROAD SW,ROCHESTER,MN,55902.0,http://www.crossroadscollege.edu/,CROSSROADS COLLEGE,43.997853437856996,-92.47706517203449,Success
581,9383,"2101 TRINITY ROAD, E-1006",DULUTH,MN,55811.0,http://www.lsc.edu/lifelonglearning/creditforpriorlearning/index.cfm,LAKE SUPERIOR COLLEGE,46.784601200000004,-92.1448752,Success
582,8382,NORTHWEST TECHNICAL INSTITUTE,950 BLUE GENTIAN ROAD,BL,500.0,952 944 0080,NORTHWEST TECHNICAL INSTITUTE,0.0,0.0,Unmatchable
583,7783,851 30TH AVE SE,ROCHESTER,MN,55904.0,http://www.rctc.edu/,ROCHESTER COMMUNITY TECH COLLEGE,44.0123802424442,-92.4194919013541,Success
584,8006,"1501 STATE STREET, BELLOW ACADEMIC 156",MARSHALL,MN,56258.0,http://www.smsu.edu/,SOUTHWEST MINNESOTA STATE UNIVERSITY,44.453781431765,-95.756830968221,Success
585,9988,"235 BEHMLER HALL, 600 EAST 4TH STREET",MORRIS,MN,56267.0,http://www.morris.umn.edu/services/testcenter/,UNIVERSITY OF MINNESOTA - MORRIS,45.58327,-95.91399799999999,Success
586,8060,"FOCUS, 3003 SNELLING AVENUE NORTH",ST,PA,55113.0,http://www.unwsp.edu,UNIVERSITY OF NORTHWESTERN - ST. PAUL,44.9949,-93.1812,Success
587,8842,859 30TH AVE SE,ROCHESTER,MN,55904.0,http://www.winona.edu/rochester/,WINONA STATE UNIVERSITY,44.0123055843852,-92.4194899329684,Success
588,9393,175 W. MARK ST.,WINONA,MN,55987.0,http://www.winona.msus.edu/,WINONA STATE UNIVERSITY,44.045236554703706,-91.64297116564622,Success
589,8609,3000 N. GRANT,SPRINGFIELD,MO,65803.0,http://www.cbcag.edu/,CENTRAL BIBLE COLLEGE,37.2516470894918,-93.2969593415115,Success
590,8756,411 CMU SQUARE,FAYETTE,MO,65203.0,http://www.centralmethodist.edu/,CENTRAL METHODIST UNIVERSITY,38.929930999999996,-92.372948,Success
591,9112,1001 ROGERS STREET,COLUMBIA,MO,65216.0,http://www.ccis.edu/,COLUMBIA COLLEGE,38.956786115268294,-92.3276749381312,Success
592,7209,268 CONSTITUTION STREET,FORT LEONARD WOOD,LE,65473.0,http://www.ccis.edu/nationwide/ftwood/,COLUMBIA COLLEGE,37.826765,-92.218586,Success
593,9860,3314 EMERALD LAKE,JEFFERSON CITY,CI,65109.0,http://www.ccis.edu/nationwide/jeffcity/,COLUMBIA COLLEGE,38.5708533,-92.2439189,Success
594,9423,"SPRINGFIELD CAMPUS, 3271 E. BATTLEFIELD ROAD, SUITE 250",SPRINGFIELD,MO,65804.0,http://www.ccis.edu/nationwide/springfield/,COLUMBIA COLLEGE,37.164369,-93.244291,Success
595,9537,"ROLLA, MO   65402",573,,3350.0,http://www.ccis.edu/nationwide/rolla/,COLUMBIA COLLEGE,0.0,0.0,Unmatchable
596,9861,"4240 BLUE RIDGE BLVD, SUITE 400",KANSAS CITY,CI,1702.0,http://www.ccis.edu/nationwide/kansascity/,COLUMBIA COLLEGE-KANSAS CITY,42.272053,-71.424769,Success
597,7785,"10733 SUNSET OFFICE DRIVE , SUITE 425",ST LOUIS,LO,63127.0,http://www.cuw.edu/,CONCORDIA UNIVERSITY,38.55814829999999,-90.4084931,Success
598,9119,ONE COLLEGE HILL,CANTON,MO,63435.0,http://www.culver.edu/,CULVER-STOCKTON COLLEGE,40.130488,-91.52748299999999,Success
599,8965,900 NORTH BENTON AVENUE,SPRINGFIELD,MO,65802.0,http://www.drury.edu/,DRURY UNIVERSITY,37.2197273639307,-93.2857724245794,Success
600,8167,111 N. GLENSTONE,SPRINGFIELD,MO,65802.0,http://www.evangel.edu/,EVANGEL UNIVERSITY,37.212257,-93.30667700000001,Success
601,7508,"WOODROW BURT ADMINISTRATION BUILDING, 2ND FLOOR2800 PALMYRA ROAD",HANNIBAL,MO,63401.0,http://www.hlg.edu/,HANNIBAL-LAGRANGE UNIVERSITY,39.708581,-91.38082299999999,Success
602,8520,ONE COLLEGE PARK DRIVE,ST,LO,63141.0,http://www.mobap.edu/,MISSOURI BAPTIST COLLEGE,38.6422384,-90.46379499999999,Success
603,8809,901 S. NATIONAL AVENUE,SPRINGFIELD,MO,65898.0,http://www.missouristate.edu/,MISSOURI STATE UNIVERSITY,37.1985599506354,-93.2784617549549,Success
604,9916,"320 W. 12TH STREET, 202 NORWOOD HALL",ROLLA,MO,1350.0,http://www.testcenter.mst.edu/,MISSOURI UNIVERSITY OF SCIENCE &AMP; TECHNOLOGY,42.716667,-72.983333,Success
605,9022,1301 MAIN STREET,TRENTON,MO,64683.0,http://www.ncmissouri.edu/,NORTH CENTRAL MISSOURI COLLEGE,40.0774181044808,-93.6176400296562,Success
606,9274,8700 NW RIVER PARK DRIVE - #46,PARKVILLE,MO,3795.0,http://new.park.edu/campus-centers/missouri/mo-parkville.html,PARK UNIVERSITY,39.200442423530795,-94.72225221183442,Success
607,8504,"268 CONSTITUTION STREET, SUITE 11",FT,LE,65473.0,http://new.park.edu/campus-centers/missouri/mo-waynesville.html,PARK UNIVERSITY,37.826765,-92.218586,Success
608,9435,ONE UNIVERSITY PLAZA,CAPE GIRARDEAU,GI,63701.0,http://www.semo.edu/,SOUTHEAST MISSOURI STATE UNIVERSITY,37.3157080643431,-89.5270772679429,Success
609,9613,"3201 W. 16TH STREET, CHARLES E. YEATER LEARNING CENTER, ROOM 171",SEDALIA,MO,65301.0,http://www.sfccmo.edu/,STATE FAIR COMMUNITY COLLEGE,38.69508,-93.24216,Success
610,7226,"511 SPIRIT BOULEVARD, BUILDING 515, ROOM 246",WHITEMAN AFB,AF,65305.0,http://www.sfccmo.edu/,STATE FAIR COMMUNITY COLLEGE - WHITEMAN AFB,38.728246,-93.56535699999999,Success
611,9609,"FLORISSANT VALLEY, 3400 PERSHALL ROAD",ST,LO,63135.0,http://www.stlcc.cc.mo.us/,ST. LOUIS COMMUNITY COLLEGE,38.7489,-90.303899,Success
612,9266,"10450 HOLMES ROAD, SUITE 100",KANSAS CITY,CI,3459.0,http://www.strayer.edu/,STRAYER UNIVERSITY,0.0,0.0,ExceptionOccurred
613,9178,"1600 S BRENTWOOD BLVD, SUITE 300",BRENTWOOD,MO,63144.0,http://www.strayer.edu/,STRAYER UNIVERSITY,38.6268444011793,-90.34546808203208,Success
614,9085,HUMPHREYS 216 UNIVERSITY OF CENTRAL MISSOURI,WARRENSBURG,MO,64093.0,http://www.cmsu.edu/,UNIVERSITY OF CENTRAL MISSOURI,38.758746,-93.732134,Success
615,8838,205 PARKER HALL,COLUMBIA,MO,65211.0,http://www.missouri.edu/,UNIVERSITY OF MISSOURI,38.948231,-92.32733499999999,Success
616,8620,"8001 NATURAL BRIDGE ROAD, TOWER 507",ST,LO,4499.0,http://www.umsl.edu/,UNIVERSITY OF MISSOURI - ST. LOUIS,0.0,0.0,ExceptionOccurred
617,9991,470 EAST LOCKWOOD,ST,LO,63119.0,http://www.webster.edu/,WEBSTER UNIVERSITY,38.590612830001,-90.3454395488721,Success
618,9990,"1200 EAST 104TH STREET, SUITE 100",KANSAS CITY,CI,64131.0,http://www.webster.edu/,WEBSTER UNIVERSITY,38.9392781961942,-94.5771324102767,Success
619,8243,"THIS LOCATION ONLY TESTS TO ENROLLED STUDENTS**, 4780 I-55 NORTH, SUITE 125,",JACKSON,MS,39211.0,http://www.bellhaven.edu/,BELHAVEN COLLEGE,32.370898,-90.12805999999999,Success
620,8697,"7111 SOUTHCREST PARKWAY, SUITE 105",SOUTHAVEN,MS,38671.0,http://www.belhaven.edu/,BELLHAVEN UNIVERSITY,34.9642175,-89.99561990000001,Success
621,8652,201 WEST MAIN STREET,BLUE MOUNTAIN,MO,38610.0,http://www.bmc.edu,BLUE MOUNTAIN COLLEGE,34.670141,-89.019896,Success
622,7233,14109 FOX HILL DRIVE,GULFPORT,MS,39503.0,http://military.coastline.edu/,COASTLINE COMMUNITY COLLEGE,30.4731,-89.15382,Success
623,8996,"505 MAIN STREET, P.O. BOX 1100",RAYMOND,MS,39154.0,http://www.hindscc.edu/,HINDS COMMUNITY COLLEGE,32.254396157087996,-90.41780678845491,BrokenTie
624,7315,"RAYMOND, MS   37154-1100",800,CC,,http://www.hindscc.edu/,HINDS COMMUNITY COLLEGE,0.0,0.0,Unmatchable
625,8988,1000 COURT STREET,ELLISVILLE,MS,39437.0,http://www.jcjc.edu/,JONES COUNTY JUNIOR COLLEGE,31.597859999999997,-89.2086,Success
626,7193,910 HIGHWAY 19 NORTH,MERIDIAN,MS,39307.0,http://www.meridian.edu/,MERIDIAN COMMUNITY COLLEGE,32.3659547433002,-88.73309210563541,Success
627,7310,SAINT LEO UNIVERSITY,ADDRESS 680 SEVENTH STREET,SE,120.0,662-434-8844,SAINT LEO UNIVERSITY,0.0,0.0,Unmatchable
628,7980,"460 BRIARWOOD DRIVE, SUITE 200",JACKSON,MS,39206.0,http://www.strayer.edu/,STRAYER UNIVERSITY,32.380418734064804,-90.1494257426907,Success
629,7355,WAYLAND BAPTIST UNIVERSITY,500 FISHER STREET,FI,,http://www.wbu.edu/,WAYLAND BAPTIST UNIVERSITY,0.0,0.0,Unmatchable
630,9472,2100 16TH AVENUE SOUTH,GREAT FALLS,FA,59405.0,http://students.gfcmsu.edu/testing/,GREAT FALLS COLLEGE - MONTANA STATE UNIVERSITY,47.4863845,-111.269929,Success
631,8950,2715 DICKINSON,MILES CITY,CI,59301.0,http://www.milescc.edu/,MILES COMMUNITY COLLEGE,46.404605700000005,-105.8258673,Success
632,8953,GARNETT LIBRARY 304 W. TRISH KNIGHT ST.,WEST PLAINS,PL,65775.0,http://wp.missouristate.edu,MISSOURI STATE UNIVERSITY - WEST PLAINS,36.51388,-91.80154,Success
633,8585,1300 WEST PARK STREET,BUTTE,MT,59701.0,http://www.mtech.edu/,MONTANA TECH OF THE UNIVERSITY OF MONTANA,46.0111953,-112.55677890000001,Success
634,8129,LODGE 231 CAMPUS DRIVE,MISSOULA,MT,59812.0,http://www.umt.edu/,UNIVERSITY OF MONTANA,46.858954,-113.98647,Success
635,9831,"211 N. BROADWAY, SUITE 900",ST,LO,63102.0,http://www.phoenix.edu,UNIVERSITY OF PHOENIX,38.6270797944473,-90.1894716203246,Success
636,9358,"200 MEREDITH DRIVE, SUITE 106",DURHAM,NC,27713.0,http://www.hsbenterprise.org/,A PLUS TESTING &AMP; ASSESSMENT CENTER - DURHAM SITE,35.900594700000006,-78.8988204,Success
637,8037,2853 DAVIS ROAD,EAST BEND,BE,27018.0,http://www.brewertesting.com/,BREWER TESTING SERVICES,36.2072588189119,-80.4814166605567,Success
638,7365,PO BOX 7365,FORT BRAGG,BR,28307.0,http://www.campbellfortbragg.com/index.htm,CAMPBELL UNIVERSITY,35.14074,-78.99804,Success
639,7300,384 MAYNARD ST,POPE AFB,AF,28308.0,http://www.campbellfortbragg.com/index.htm,CAMPBELL UNIVERSITY,35.1731895760912,-79.00448003248991,Success
640,9081,PO BOX 1135,BLUES CREEK,CR,27506.0,http://www.campbell.edu/academics/registrar/registrar-policies.html#dantes_subject_standardized_tests_(dssts),CAMPBELL UNIVERSITY-FORT BRAGG,35.406789,-78.738203,Success
641,7319,305 CUNNINGHAM BLVD,HAVELOCK,NC,28532.0,http://www.cravencc.edu/,CRAVEN COMMUNITY COLLEGE,34.893026,-76.90137,Success
642,9588,102-D BREWSTER BUILDING,GREENVILLE,NC,27858.0,http://www.ecu.edu/testingcenter/,EAST CAROLINA UNIVERSITY,35.589407,-77.351275,Success
643,9145,"FAYETTEVILLE, NC   28301",910,,1302.0,http://www.uncfsu.edu/,FAYETTEVILLE STATE UNIVERSITY,42.65202,-72.60965300000001,Success
644,8616,815 WEST MARKET,GREENSBORO,NC,27401.0,http://www.gborocollege.edu/,GREENSBORO COLLEGE,36.0710263,-79.800031,Success
645,9433,"1100 LOGGER COURT, BUILDING E-101",RALEIGH,NC,27609.0,http://hsbenterprise.org/,HSB ENTERPRISE CORPORATION,35.8641157,-78.6210425,Success
646,8581,PO BOX 398,KENANSVILLE,NC,28349.0,http://www.sprunt.edu/,JAMES SPRUNT COMMUNITY COLLEGE,34.962078000000005,-77.960596,Success
647,9426,245 COLLEGE ROAD,SMITHFIELD,NC,27577.0,http://www.johnston.edu/,JOHNSTON COMMUNITY COLLEGE,35.512172,-78.347308,Success
648,9206,501 NORTH MAIN ST,LOUISBURG,NC,27549.0,http://www.louisberg.edu/,LOUISBURG COLLEGE,36.10648629999999,-78.2985469,Success
649,9222,5400 RAMSEY ST,FAYETTEVILLE,NC,28311.0,http://www.methodist.edu/,METHODIST COLLEGE,35.1286845643791,-78.8668777212968,Success
650,8372,634 HENDERSON ST,MOUNT OLIVE,OL,28365.0,http://www.moc.edu/,MOUNT OLIVE COLLEGE,35.20782020000001,-78.07105,Success
651,7869,MOUNT OLIVE COLLEGE,2543 ONSLOW DRIVE,ON,,910-455-1677,MOUNT OLIVE COLLEGE,0.0,0.0,Unmatchable
652,8288,"NEW BERN, NC   28560",800,,5479.0,http://www.moc.edu/,MOUNT OLIVE COLLEGE,44.812059999999995,-73.08276,Success
653,8241,"5001 S. MIAMI BOULEVARD, SUITE 112",DURHAM,NC,27703.0,http://www.moc.edu/,MOUNT OLIVE COLLEGE,35.8851209,-78.8485851,Success
654,9434,522 NORTH OLD CARRIAGE ROAD,ROCKY MOUNT,MO,488.0,http://www.nashcc.edu/,NASH COMMUNITY COLLEGE,38.3088593907541,-92.50820580553619,Success
655,8537,5108 REAGAN DR. SUITE 12,CHARLOTTE,NC,28206.0,http://www.ncelitecareer.com/,NC ELITE CAREER CENTER OF CHARLOTTE,35.27614129999999,-80.7952141,Success
