NoName,Address,City,State,Zip,id,link,name,phone,AUTO_UNIQUE_ID_2017-12-10_leogodin217_dsst-locations,Source,TimeTaken,UpdatedGeocoding,Version,ErrorMessage,TransactionId,naaccrQualCode,naaccrQualType,FeatureMatchingResultType,MatchedLocationType,RegionSizeUnits,InterpolationType,RegionSize,InterpolationSubType,FeatureMatchingGeographyType,MatchScore,FeatureMatchingHierarchy,TieHandlingStrategyType,FeatureMatchingResultTypeTieBreakingNotes,GeocodeQualityType,FeatureMatchingHierarchyNotes,FeatureMatchingResultTypeNotes,FeatureMatchingResultCount,Latitude,Longitude,MatchType
0,"2221 E. NORTHERN LIGHTS, SUITE 120",ANCHORAGE,AK,99508,9397,http://chartercollege.edu/,CHARTER COLLEGE,907-777-1324,1,USCGeocoder,31,1,4.1,,f084dd76-6842-4c03-99ea-29210ff041b7,0,AddressPoint,Success,LOCATION_TYPE_STREET_ADDRESS,Meters,ArealInterpolation,0,ArealInterpolationGeometricCentroid,Parcel,94.0828402366864,FeatureClassBased,ReturnAll,,AddressPoint,,,0,61.1962224,-149.8397017,Relaxed;Soundex
1,156 COLLEGE ROAD,SOLDOTNA,AK,99669,8139,http://www.kpc.alaska.edu/kpc/,KENAI PENINSULA COLLEGE,907) 262-0327,2,USCGeocoder,27,1,4.1,,76a51da6-12e5-4e70-830e-a00bd5b52aad,0,AddressPoint,Success,LOCATION_TYPE_STREET_ADDRESS,Meters,ArealInterpolation,0,ArealInterpolationGeometricCentroid,Parcel,100,FeatureClassBased,ReturnAll,,AddressPoint,,,0,60.4861147,-151.1279929,Exact
2,117 BENNY BENSON DRIVE,KODIAK,AK,99615,9664,http://www.koc.alaska.edu/,KODIAK COLLEGE,907-486-1211,3,USCGeocoder,114,1,4.1,,526c39fb-9e69-40d0-959e-967595117a8c,3,StreetSegmentInterpolation,Success,LOCATION_TYPE_STREET_ADDRESS,Meters,LinearInterpolation,22218.2513112864,LinearInterpolationAddressRange,StreetSegment,100,FeatureClassBased,ReturnAll,,AddressRangeInterpolation,,,0,57.8076993972596,-152.367891207214,Exact
3,8295 E COLLEGE DR,PALMER,AK,99645,8578,http://www.matsu.alaska.edu/,MATANUSKA-SUSITNA COLLEGE,907) 745-9713,4,USCGeocoder,385,1,4.1,,4510b4ca-21ff-4667-9beb-6fc8abca6f5f,3,StreetSegmentInterpolation,Success,LOCATION_TYPE_STREET_ADDRESS,Meters,LinearInterpolation,2393.37261094479,LinearInterpolationAddressRange,StreetSegment,98.9940828402367,FeatureClassBased,ReturnAll,,AddressRangeInterpolation,,,0,61.5794069226687,-149.243216813988,Relaxed
4,"EIELSON AIR FORCE BASE, EDUCATION CENTER, 2631 WABASH AVE. ROOM 204",EIELSON,AK,99702,7154,http://www.uaf.edu/,UNIVERSITY OF ALASKA,907-474-5277,5,USCGeocoder,1176,1,4.1,,95c82e40-2814-4e02-95b4-33ec3cf7a75c,9,AddressZIPCentroid,Success,LOCATION_TYPE_STREET_ADDRESS,Meters,ArealInterpolation,0,ArealInterpolationGeometricCentroid,USPSZip,100,FeatureClassBased,ReturnAll,,USPSZipAreaCentroid,,,0,64.653581,-147.085013,Exact
5,"3901 OLD SEWARD HIGHWAY
UNIVERSITY CENTER, ROOM 112",ANCHORAGE,AK,99503,9043,http://www.uaa.alaska.edu/advising-testing/testing-and-assessment/index.cfm,UNIVERSITY OF ALASKA,907-786-4525,6,USCGeocoder,1349,1,4.1,,6d65a164-ef9c-4f6f-928f-a4e528a93eb0,9,AddressZIPCentroid,Success,LOCATION_TYPE_STREET_ADDRESS,Meters,ArealInterpolation,0,ArealInterpolationGeometricCentroid,USPSZip,100,FeatureClassBased,ReturnAll,,USPSZipAreaCentroid,,,0,61.193435,-149.888062,Exact
6,"314 S. CHANDALAR ST.GRUENING BLDG., ROOM 211",FAIRBANKS,AK,99775,9349,http://www.uaf.edu/testing/,UNIVERSITY OF ALASKA,907) 474-5277,7,USCGeocoder,245,1,4.1,,4b093381-2d93-44fc-92b8-b90d066340e4,9,AddressZIPCentroid,Success,LOCATION_TYPE_STREET_ADDRESS,Meters,ArealInterpolation,0,ArealInterpolationGeometricCentroid,USPSZip,100,FeatureClassBased,ReturnAll,,USPSZipAreaCentroid,,,0,64.817129,-147.878379,Exact
7,UAF CTC 604 BARNETTE STREET,FAIRBANKS,AK,99701,8312,https://www.ctc.uaf.edu/,"UNIVERSITY OF ALASKA FAIRBANKS, COMMUNITY AND TECHNICAL COLLEGE",907) 455-2851,8,USCGeocoder,4,1,4.1,,4f8579cf-deb5-40bc-8b8a-47fc083427cd,9,AddressZIPCentroid,Success,LOCATION_TYPE_STREET_ADDRESS,Meters,ArealInterpolation,0,ArealInterpolationGeometricCentroid,USPSZip,100,FeatureClassBased,ReturnAll,,USPSZipAreaCentroid,,,0,64.836296,-147.715406,Exact
8,4391 NEELY RD,FORT WAINWRIGHT,WA,99703,7373,http://www.ctc.uaf.edu/,"UNIVERSITY OF ALASKA FT WAINWRIGHT, COMMUNITY AND TECHNICAL COLLEGE",907) 356-3826,9,USCGeocoder,151,1,4.1,,4681ddaa-ccdf-4c6e-96da-4acc187d8ac3,9,AddressZIPCentroid,Success,LOCATION_TYPE_STREET_ADDRESS,Meters,ArealInterpolation,0,ArealInterpolationGeometricCentroid,USPSZip,100,FeatureClassBased,ReturnAll,,USPSZipAreaCentroid,,,0,64.821983,-147.635602,Exact
9,2600 SEVENTH AVENUE,KETCHIKAN,AK,5798,8295,http://www.ketch.alaska.edu/,UNIVERSITY OF ALASKA SOUTHEAST,907-225-6171,10,USCGeocoder,1158,1,4.1,,3e217fec-9535-4bb6-8c6c-440c9c546c18,98,Unknown,Success,LOCATION_TYPE_STREET_ADDRESS,Kilometers,ArealInterpolation,5445453.103,ArealInterpolationGeometricCentroid,State,100,FeatureClassBased,ReturnAll,,StateCentroid,,,0,61.3253500000001,-154.56505,Exact
10,11066 AUKE LAKE WAY,JUNEAU,AK,99801,7870,http://www.uas.alaska.edu/,UNIVERSITY OF ALASKA SOUTHEAST - JUNEAU,907) 796-6348,11,USCGeocoder,27,1,4.1,,2e91593b-576e-4408-8a3d-7d71c0f88367,0,AddressPoint,Success,LOCATION_TYPE_STREET_ADDRESS,Meters,ArealInterpolation,0,ArealInterpolationGeometricCentroid,Parcel,97.3372781065089,FeatureClassBased,ReturnAll,,AddressPoint,,,0,58.3829359,-134.6394232,Relaxed
11,7801 E. 32ND AVENUE,ANCHORAGE,AK,99504,7105,http://www.wbu.edu/colleges-in-anchorage/,WAYLAND BAPTIST UNIVERSITY,907-333-2277,12,USCGeocoder,32,1,4.1,,d5c178d6-0216-4140-92fa-3649eb4bccbf,0,AddressPoint,Success,LOCATION_TYPE_STREET_ADDRESS,Meters,ArealInterpolation,0,ArealInterpolationGeometricCentroid,Parcel,100,FeatureClassBased,ReturnAll,,AddressPoint,,,0,61.1917771,-149.733915,Exact
12,4900 MERIDIAN ST,NORMAL,AL,35762,9234,http://www.aamu.edu/,ALABAMA A&M; UNIVERSITY,256-372-5635,13,USCGeocoder,211,1,4.1,,c2c3f63f-2714-4af2-b261-1aac25dee7e5,10,POBoxZIPCentroid,Success,LOCATION_TYPE_STREET_ADDRESS,Meters,ArealInterpolation,0,ArealInterpolationGeometricCentroid,USPSZip,100,FeatureClassBased,ReturnAll,,USPSZipAreaCentroid,,,0,34.792912,-86.569,Exact
13,300 NORTH BEATY STREET,ATHENS,AL,35611,9048,http://www.athens.edu/,ATHENS STATE UNIVERSITY,256-233-6540,14,USCGeocoder,114,1,4.1,,4b255ec2-678d-4316-a834-7e0b237db4bc,3,StreetSegmentInterpolation,Success,LOCATION_TYPE_STREET_ADDRESS,Meters,LinearInterpolation,2584.19616933964,LinearInterpolationAddressRange,StreetSegment,100,FeatureClassBased,ReturnAll,,AddressRangeInterpolation,,,0,34.8059701209347,-86.9674669964956,Exact
14,"ARMY EDUCATION CENTER , BLDG 3222",REDSTONE ARSENAL,AR,35898,7200,http://www.ccis.edu/nationwide/redstone/,COLUMBIA COLLEGE,256-881-6181,15,USCGeocoder,5,1,4.1,,c25fbeea-888d-4463-b2b8-4824f21b21c0,9,AddressZIPCentroid,Success,LOCATION_TYPE_STREET_ADDRESS,Meters,ArealInterpolation,0,ArealInterpolationGeometricCentroid,USPSZip,100,FeatureClassBased,ReturnAll,,USPSZipAreaCentroid,,,0,34.628936,-86.651129,Exact
15,5345 ATLANTA HIGHWAY,MONTGOMERY,AL,36109,8036,http://www.faulkner.edu/,FAULKNER UNIVERSITY,334-386-7247,16,USCGeocoder,26,1,4.1,,7ebf2ff6-fc15-4186-8670-8ac1e01b8c9c,0,AddressPoint,Success,LOCATION_TYPE_STREET_ADDRESS,Meters,ArealInterpolation,0,ArealInterpolationGeometricCentroid,Parcel,100,FeatureClassBased,ReturnAll,,AddressPoint,,,0,32.3841095,-86.2164345,Exact
16,7000 ADVENTIST BOULEVARD,HUNTSVILLE,AL,35896,8321,http://www.oakwood.edu/,OAKWOOD COLLEGE,256-726-7134,17,USCGeocoder,133,1,4.1,,0276765e-3f3c-4ad6-988b-703a1b7dc2cb,3,StreetSegmentInterpolation,Success,LOCATION_TYPE_STREET_ADDRESS,Meters,LinearInterpolation,1256.25297191239,LinearInterpolationAddressRange,StreetSegment,97.6331360946746,FeatureClassBased,ReturnAll,,AddressRangeInterpolation,,,0,34.751130823499,-86.6543662661342,Relaxed
17,"SHARP-DEAN SCHOOL OF CONTINUING STUDIES, INC",1910 NOBLE STREET,NO,2101,8812,256-238-0466,"SHARP-DEAN SCHOOL OF CONTINUING STUDIES, INC","ANNISTON, AL   36201",18,USCGeocoder,11,1,4.1,,73b63f5a-3b96-4aa7-8e7d-6aa5bde7f170,99,Unmatchable,Unmatchable,LOCATION_TYPE_UNKNOWN,Unknown,NotAttempted,-1,NotAttempted,Unmatchable,0,FeatureClassBased,ReturnAll,,Unmatchable,,,0,0,0,
18,4000 DAUPHIN STREET,MOBILE,AL,36608,8605,http://www.shc.edu/,SPRING HILL COLLEGE,251-380-3069,19,USCGeocoder,45,1,4.1,,99930ac9-4124-4171-9346-464d9c7c055a,0,AddressPoint,Success,LOCATION_TYPE_STREET_ADDRESS,Meters,ArealInterpolation,0,ArealInterpolationGeometricCentroid,Parcel,100,FeatureClassBased,ReturnAll,,AddressPoint,,,0,30.6974331,-88.1367365,Exact
19,"4955 CORPORATE DRIVE, SUITE 200",HUNTSVILLE,AL,35805,8693,http://www.strayer.edu/,STRAYER UNIVERSITY,256-665-9729,20,USCGeocoder,27,1,4.1,,91e3cf4f-8339-40ae-8bfe-e1509b551125,0,AddressPoint,Success,LOCATION_TYPE_STREET_ADDRESS,Meters,ArealInterpolation,0,ArealInterpolationGeometricCentroid,Parcel,97.6331360946746,FeatureClassBased,ReturnAll,,AddressPoint,,,0,34.732078,-86.6562253,Relaxed
20,"3570 GRANDVIEW PARKWAY, STE 200",BIRMINGHAM,AL,35243,8430,http://www.strayer.edu/,STRAYER UNIVERSITY,205-453-6329,21,USCGeocoder,36,1,4.1,,ab755cc6-7107-4778-ada9-155e39b2c7b8,0,AddressPoint,Success,LOCATION_TYPE_STREET_ADDRESS,Meters,ArealInterpolation,0,ArealInterpolationGeometricCentroid,Parcel,100,FeatureClassBased,ReturnAll,,AddressPoint,,,0,33.4386957,-86.7174831,Exact
21,301 SPARKMAN DR. NW WILSON HALL ROOM 202,HUNTSVILLE,AL,35899,9462,http://www.uah.edu/pcs/testing-certification-services,THE UNIVERSITY OF ALABAMA IN HUNTSVILLE,256) 824-6373,22,USCGeocoder,37,1,4.1,,9ce90d46-bf3e-4a8a-9e4a-ab2b83914fba,0,AddressPoint,Success,LOCATION_TYPE_STREET_ADDRESS,Meters,ArealInterpolation,0,ArealInterpolationGeometricCentroid,Parcel,100,FeatureClassBased,ReturnAll,,AddressPoint,,,0,34.730919,-86.6413874,Exact
22,100 UNIVERSITY PARK,TROY,AL,36082,9344,http://www.troy.edu/,TROY UNIVERSITY,334-808-6219,23,USCGeocoder,125,1,4.1,,091d2437-b01c-4bf7-83ac-4cb2d70f2fb2,3,StreetSegmentInterpolation,Success,LOCATION_TYPE_STREET_ADDRESS,Meters,LinearInterpolation,4266.20144409034,LinearInterpolationAddressRange,StreetSegment,90.0887573964497,FeatureClassBased,ReturnAll,,AddressRangeInterpolation,,,0,31.8003370357243,-85.9638759106211,Relaxed
23,"231 MONTGOMERY STREETWHITLEY HALL, ROOM 431",MONTGOMERY,AL,3507,8627,http://www.troy.edu/,TROY UNIVERSITY,334-241-9532,24,USCGeocoder,198,1,4.1,,3d4a2761-e76b-4b3a-bc0b-940d7e734d3f,11,CityCentroid,Success,LOCATION_TYPE_STREET_ADDRESS,Kilometers,ArealInterpolation,421.109,ArealInterpolationGeometricCentroid,City,100,FeatureClassBased,ReturnAll,,CityCentroid,,,0,32.3472436864462,-86.2672601973856,Exact
24,501 UNIVERSITY DRIVE,DOTHAN,AL,36303,9402,http://www.troy.edu/,TROY UNIVERSITY,334-983-6556 X1286,25,USCGeocoder,118,1,4.1,,ab08fbcc-692c-4487-a877-17f9903b322b,9,AddressZIPCentroid,Success,LOCATION_TYPE_STREET_ADDRESS,Meters,ArealInterpolation,0,ArealInterpolationGeometricCentroid,USPSZip,100,FeatureClassBased,ReturnAll,,USPSZipAreaCentroid,,,0,31.25424,-85.3989,Exact
25,4502 KINGSMAN STREET,FORT RUCKER,RU,36362,7187,http://www.troy.edu/,TROY UNIVERSITY,334-598-2443,26,USCGeocoder,178,1,4.1,,93800cb1-3491-4e55-a3f5-a944d6a28275,9,AddressZIPCentroid,Success,LOCATION_TYPE_STREET_ADDRESS,Meters,ArealInterpolation,0,ArealInterpolationGeometricCentroid,USPSZip,100,FeatureClassBased,ReturnAll,,USPSZipAreaCentroid,,,0,31.348835,-85.719366,Exact
26,"205 STUDENT SERVICES CENTER, 801 CAMPUS DRIVE",TUSCALOOSA,AL,108,9348,http://www.ua.edu/,UNIVERSITY OF ALABAMA,205-348-6000,27,USCGeocoder,221,1,4.1,,f09f8a54-98a0-41f3-8da0-1800d28239ed,11,CityCentroid,Success,LOCATION_TYPE_STREET_ADDRESS,Kilometers,ArealInterpolation,182.217,ArealInterpolationGeometricCentroid,City,100,FeatureClassBased,ReturnAll,,CityCentroid,,,0,33.2330833,-87.5257979,Exact
27,"936 BUILDING, 170 2ND AVENUE SOUTH",BIRMINGHAM,AL,1150,9948,http://www.uab.edu/testing/,UNIVERSITY OF ALABAMA AT BIRMINGHAM,205-934-3704,28,USCGeocoder,366,1,4.1,,b4109f13-cca7-470d-b159-ff5847b628ea,98,Unknown,Success,LOCATION_TYPE_STREET_ADDRESS,Kilometers,ArealInterpolation,135767.387,ArealInterpolationGeometricCentroid,State,100,FeatureClassBased,ReturnAll,,StateCentroid,,,0,32.6350164157569,-86.8093793082489,Exact
28,"1 HARRISON PLAZATHE COMMONS BUILDING, ROOM 214",FLORENCE,AL,35634,8619,http://www.una.edu/,UNIVERSITY OF NORTH ALABAMA,256)765-4773,29,USCGeocoder,213,1,4.1,,941c0f67-9cb1-4812-ad6c-25f7164d5f9b,9,AddressZIPCentroid,Success,LOCATION_TYPE_STREET_ADDRESS,Meters,ArealInterpolation,0,ArealInterpolationGeometricCentroid,USPSZip,100,FeatureClassBased,ReturnAll,,USPSZipAreaCentroid,,,0,34.799674,-87.675698,Exact
29,"20 NORTH PINE STREET, BUILDING 501",MAXWELL AFB,AF,36112,7354,http://www.wbu.edu/,WAYLAND BAPTIST UNIVERSITY,334-953-3637,30,USCGeocoder,185,1,4.1,,aeafb9bf-1752-4543-bd55-c33684b24f5f,9,AddressZIPCentroid,Success,LOCATION_TYPE_STREET_ADDRESS,Meters,ArealInterpolation,0,ArealInterpolationGeometricCentroid,USPSZip,100,FeatureClassBased,ReturnAll,,USPSZipAreaCentroid,,,0,32.36658,-86.29998,Exact
30,"1490 VANDENBERG BLVD, SUITE 115",JACKSONVILLE,AR,72099,7125,http://www.asub.edu/academic_programs/support/registrar/,ARKANSAS STATE UNIVERSITY - LRAFB CENTER,501) 988-4151,31,USCGeocoder,151,1,4.1,,0e101421-8fde-4a80-96cf-742fa2f7f6c1,3,StreetSegmentInterpolation,Success,LOCATION_TYPE_STREET_ADDRESS,Meters,LinearInterpolation,110132.732154656,LinearInterpolationAddressRange,StreetSegment,94.0828402366864,FeatureClassBased,ReturnAll,,AddressRangeInterpolation,,,0,34.8881997072355,-92.121105862313,Relaxed
31,"UNIVERSITY TESTING, 1605 COLISEUM DRIVE, DOC BRYAN SUITE 171",RUSSELLVILLE,AR,72801,8587,http://www.atu.edu/,ARKANSAS TECHNICAL UNIVERSITY,479-968-0302,32,USCGeocoder,12,1,4.1,,4b33f2bf-79fe-448e-a981-f94751aacdc0,9,AddressZIPCentroid,Success,LOCATION_TYPE_STREET_ADDRESS,Meters,ArealInterpolation,0,ArealInterpolationGeometricCentroid,USPSZip,100,FeatureClassBased,ReturnAll,,USPSZipAreaCentroid,,,0,35.282948,-93.138428,Exact
32,"1100 HENDERSON STREET, PO BOX 7650",ARKADELPHIA,AR,71923,8819,http://www.hsu.edu/,HENDERSON STATE UNIVERSITY,870-230-5470,33,USCGeocoder,110,1,4.1,,91f49ca7-6afc-459d-99d6-3c2b03aadc2f,3,StreetSegmentInterpolation,Success,LOCATION_TYPE_STREET_ADDRESS,Meters,LinearInterpolation,2807.49861276543,LinearInterpolationAddressRange,StreetSegment,100,FeatureClassBased,ReturnAll,,AddressRangeInterpolation,,,0,34.1256155016665,-93.059767653565,Exact
33,"2807 AJAX AVENUE, SUITE 200",ROGERS,AR,72758,9667,http://www.jbu.edu/,JOHN BROWN UNIVERSITY,479-631-4665,34,USCGeocoder,31,1,4.1,,cdec69e1-59b5-4619-a8c6-a1713e58832a,0,AddressPoint,Success,LOCATION_TYPE_STREET_ADDRESS,Meters,ArealInterpolation,0,ArealInterpolationGeometricCentroid,Parcel,95.8579881656805,FeatureClassBased,ReturnAll,,AddressPoint,,,0,36.2946332,-94.1634815,Relaxed
34,2000 WEST UNIVERSITY,SILOAM SPRINGS,SP,72761,8066,http://www.jbu.edu/,JOHN BROWN UNIVERSITY,479-524-7103,35,USCGeocoder,109,1,4.1,,c979e26f-3370-421a-92e9-8ccea73cd323,3,StreetSegmentInterpolation,Success,LOCATION_TYPE_STREET_ADDRESS,Meters,LinearInterpolation,2978.83052133794,LinearInterpolationAddressRange,StreetSegment,97.0414201183432,FeatureClassBased,ReturnAll,,AddressRangeInterpolation,,,0,36.188068762031,-94.5595628090803,Relaxed
35,"1401 S. WALDRON ROAD, SUITE 201",FORT SMITH,SM,72903,8313,http://www.jbu.edu/,JOHN BROWN UNIVERSITY,479) 648-0082,36,USCGeocoder,32,1,4.1,,d5f20a24-3b43-41de-93d6-c5d20cddbfce,0,AddressPoint,Success,LOCATION_TYPE_STREET_ADDRESS,Meters,ArealInterpolation,0,ArealInterpolationGeometricCentroid,Parcel,100,FeatureClassBased,ReturnAll,,AddressPoint,,,0,35.3682795,-94.3721103,Exact
36,"8114 CANTRELL ROAD, SUITE 250",LITTLE ROCK,RO,72227,8299,http://www.jbu.edu/,JOHN BROWN UNIVERSITY - LITTLE ROCK CENTER,501-771-9000,37,USCGeocoder,36,1,4.1,,3e8b2933-4849-4c91-9eec-03a9d9e89b2d,0,AddressPoint,Success,LOCATION_TYPE_STREET_ADDRESS,Meters,ArealInterpolation,0,ArealInterpolationGeometricCentroid,Parcel,100,FeatureClassBased,ReturnAll,,AddressPoint,,,0,34.7773196,-92.3645681,Exact
37,101 COLLEGE DRIVE,HOT SPRINGS,SP,71913,7930,http://www.npcc.edu/,NATIONAL PARK COLLEGE,501) 760-4376,38,USCGeocoder,125,1,4.1,,4ea20f63-0df2-4259-b8ae-8cbe43e0ff46,3,StreetSegmentInterpolation,Success,LOCATION_TYPE_STREET_ADDRESS,Meters,LinearInterpolation,2034.17258237874,LinearInterpolationAddressRange,StreetSegment,98.9940828402367,FeatureClassBased,ReturnAll,,AddressRangeInterpolation,,,0,34.5133314837916,-93.1210883481919,Relaxed
38,ONE COLLEGE DRIVESTUDENT CENTER 306,BENTONVILLE,AR,72712,9798,http://www.nwacc.edu/,NORTHWEST ARKANSAS COMMUNITY COLLEGE,479) 986-4078,39,USCGeocoder,165,1,4.1,,0e7307fa-ea6f-4f7d-97d7-ba95ddf22d5c,9,AddressZIPCentroid,Success,LOCATION_TYPE_STREET_ADDRESS,Meters,ArealInterpolation,0,ArealInterpolationGeometricCentroid,USPSZip,100,FeatureClassBased,ReturnAll,,USPSZipAreaCentroid,,,0,36.375647,-94.209338,Exact
39,"100 EAST UNIVERSITY STREET, P.O. BOX 9371",MAGNOLIA,AR,71754,8790,http://www.saumag.edu/,SOUTHERN ARKANSAS UNIVERSITY,870-235-4145,40,USCGeocoder,142,1,4.1,,08e2259b-f7f5-4447-bd8a-0f9a3f0eca23,3,StreetSegmentInterpolation,Success,LOCATION_TYPE_STREET_ADDRESS,Meters,LinearInterpolation,857.719039868141,LinearInterpolationAddressRange,StreetSegment,96.0059171597633,FeatureClassBased,ReturnAll,,AddressRangeInterpolation,,,0,33.2889063599756,-93.2369549081375,Relaxed
40,"10825 FINANCIAL CENTRE PARKWAY, SUITE 400",LITTLE ROCK,RO,72211,7949,http://www.strayer.edu/,STRAYER UNIVERSITY,501-708-0629,41,USCGeocoder,64,1,4.1,,9f194f5a-3df2-414a-ae9f-5f44f527ca75,0,AddressPoint,Success,LOCATION_TYPE_STREET_ADDRESS,Meters,ArealInterpolation,0,ArealInterpolationGeometricCentroid,Parcel,100,FeatureClassBased,ReturnAll,,AddressPoint,,,0,34.747337,-92.3960374,Exact
41,"TESTING SERVICES, 1435 W WALTON ST, 1 UNIVERSITY OF ARKANSAS",FAYETTEVILLE,AR,72701,8701,http://test.uark.edu/,UNIVERSITY OF ARKANSAS,479-575-3948,42,USCGeocoder,4,1,4.1,,74b72c56-f941-4f16-a847-805dd7c27d68,9,AddressZIPCentroid,Success,LOCATION_TYPE_STREET_ADDRESS,Meters,ArealInterpolation,0,ArealInterpolationGeometricCentroid,USPSZip,100,FeatureClassBased,ReturnAll,,USPSZipAreaCentroid,,,0,36.05094,-94.1364,Exact
42,"2801 S. UNIVERSITY AVENUE, SSC 315",LITTLE ROCK,RO,72204,9448,http://www.ualr.edu/testing/,UNIVERSITY OF ARKANSAS - LITTLE ROCK CAMPUS,501) 569-3198,43,USCGeocoder,12,1,4.1,,9b855d96-0660-48b5-967e-c5d94340348a,0,AddressPoint,Success,LOCATION_TYPE_STREET_ADDRESS,Meters,ArealInterpolation,0,ArealInterpolationGeometricCentroid,Parcel,100,FeatureClassBased,ReturnAll,,AddressPoint,,,0,34.7212472,-92.340394,Exact
43,"201 DONAGHEY AVENUE, TORREYSON WEST 315",CONWAY,AR,72035,7257,http://www.uca.edu/ubulletin/02/204.html,UNIVERSITY OF CENTRAL ARKANSAS,501-450-3209,44,USCGeocoder,117,1,4.1,,71fb44cf-6d21-4a96-946d-80fe56f85de6,3,StreetSegmentInterpolation,Success,LOCATION_TYPE_STREET_ADDRESS,Meters,LinearInterpolation,2340.63245927361,LinearInterpolationAddressRange,StreetSegment,97.6331360946746,FeatureClassBased,ReturnAll,,AddressRangeInterpolation,,,0,35.0783323552082,-92.4543189935312,Relaxed
44,"1130 E UNIVERSITY AVE, SUITE 204",TEMPE,AZ,85281,9943,http://www.asu.edu/uts/,ARIZONA STATE UNIVERSITY,480) 965-7146,45,USCGeocoder,113,1,4.1,,ba1f973e-7ada-4780-bb1e-b48e2e31132b,3,StreetSegmentInterpolation,Success,LOCATION_TYPE_STREET_ADDRESS,Meters,LinearInterpolation,1128.77253689955,LinearInterpolationAddressRange,StreetSegment,94.0828402366864,FeatureClassBased,ReturnAll,,AddressRangeInterpolation,,,0,33.4221226443853,-111.921648370423,Relaxed
45,2020 SOUTH AVENUE 8 E,YUMA,AZ,85366,8475,http://www.azwestern.edu/,ARIZONA WESTERN COLLEGE,928-344-7641,46,USCGeocoder,256,1,4.1,,a8d977e6-67f3-4aca-8bd0-aa5a84fdd17d,10,POBoxZIPCentroid,Success,LOCATION_TYPE_STREET_ADDRESS,Meters,ArealInterpolation,0,ArealInterpolationGeometricCentroid,USPSZip,100,FeatureClassBased,ReturnAll,,USPSZipAreaCentroid,,,0,32.686728,-114.591916,Exact
46,2555 E CAMELBACK ROAD SUITE 250,PHOENIX,AZ,85016,9594,https://www.ashford.edu/,"ASHFORD UNIVERSITY - PHOENIX, AZ",866) 974-5700 X20408,47,USCGeocoder,37,1,4.1,,8d234df6-b7d5-4982-b804-17758ac1d03e,0,AddressPoint,Success,LOCATION_TYPE_STREET_ADDRESS,Meters,ArealInterpolation,0,ArealInterpolationGeometricCentroid,Parcel,100,FeatureClassBased,ReturnAll,,AddressPoint,,,0,33.508358,-112.0255712,Exact
47,901 N. COLOMBO AVENUE,SIERRA VISTA,VI,85635,8143,http://www.cochise.edu/,COCHISE COLLEGE,520-515-5447,48,USCGeocoder,21,1,4.1,,e5978aa4-bd35-4fc7-a40f-2802111835ea,9,AddressZIPCentroid,Success,LOCATION_TYPE_STREET_ADDRESS,Meters,ArealInterpolation,0,ArealInterpolationGeometricCentroid,USPSZip,100,FeatureClassBased,ReturnAll,,USPSZipAreaCentroid,,,0,31.528599,-110.2598,Exact
48,4190 WEST HIGHWAY 80,DOUGLAS,AZ,85607,9345,http://www.cochise.edu/testing,COCHISE COLLEGE,520) 515-5447,49,USCGeocoder,128,1,4.1,,b37b47dc-df6c-4db5-a930-6bfc526c0a49,3,StreetSegmentInterpolation,Success,LOCATION_TYPE_STREET_ADDRESS,Meters,LinearInterpolation,6597.47168195166,LinearInterpolationAddressRange,StreetSegment,94.9704142011834,FeatureClassBased,ReturnAll,,AddressRangeInterpolation,,,0,31.3638663261762,-109.692039744338,Relaxed
49,ARMY EDUCATION CENTER,FORT HUACHUCA,HU,85613,7202,http://www.cochise.edu/,COCHISE COLLEGE,520-515-5307,50,USCGeocoder,5,1,4.1,,3be1a071-97c6-487d-8054-383c8e454b4d,9,AddressZIPCentroid,Success,LOCATION_TYPE_STREET_ADDRESS,Meters,ArealInterpolation,0,ArealInterpolationGeometricCentroid,USPSZip,100,FeatureClassBased,ReturnAll,,USPSZipAreaCentroid,,,0,31.551784,-110.347231,Exact
50,2149 W. DUNLAP AVENUE,PHOENIX,AZ,85021,7837,http://www.devry.edu/,DEVRY UNIVERSITY,602-749-4544,51,USCGeocoder,86,1,4.1,,8e993df7-a136-43c2-9284-37af3107e341,2,Parcel,Success,LOCATION_TYPE_STREET_ADDRESS,Meters,ArealInterpolation,60285.6340560978,ArealInterpolationGeometricCentroid,Parcel,100,FeatureClassBased,ReturnAll,,ExactParcelCentroidPoint,,,0,33.5657079322947,-112.104801511524,Exact
51,MESA COMMUNITY COLLEGE,1833 W,SO,,9901,http://www.mc.maricopa.edu/,MESA COMMUNITY COLLEGE,"MESA, AZ   85202",52,USCGeocoder,7,1,4.1,,576e4a12-444f-443e-9f29-803e77039704,99,Unmatchable,Unmatchable,LOCATION_TYPE_UNKNOWN,Unknown,NotAttempted,-1,NotAttempted,Unmatchable,0,FeatureClassBased,ReturnAll,,Unmatchable,,,0,0,0,
52,9414 NORTH 25TH AVENUE,PHOENIX,AZ,85021,8589,http://www.ottawa.edu/,OTTAWA UNIVERSITY,602) 749-5177,53,USCGeocoder,58,1,4.1,,65635ceb-6faf-4753-b42c-39eef3811bed,0,AddressPoint,Success,LOCATION_TYPE_STREET_ADDRESS,Meters,ArealInterpolation,0,ArealInterpolationGeometricCentroid,Parcel,100,FeatureClassBased,ReturnAll,,AddressPoint,,,0,33.5721194,-112.1132925,Exact
53,1255 NORTH STONE AVENUE,TUCSON,AZ,85709,9280,http://www.pima.edu/,PIMA COMMUNITY COLLEGE,520-206-6143,54,USCGeocoder,32,1,4.1,,36612e94-cd83-410b-a11e-61a3fdf6c491,0,AddressPoint,Success,LOCATION_TYPE_STREET_ADDRESS,Meters,ArealInterpolation,0,ArealInterpolationGeometricCentroid,Parcel,100,FeatureClassBased,ReturnAll,,AddressPoint,,,0,32.2376829,-110.9728777,Exact
54,5355 E. GRANITE STREET,DAVIS MONTHAN AFB,MO,3009,7152,http://www.asub.edu,PIMA COMMUNITY COLLEGE,520) 206-4866,55,USCGeocoder,307,1,4.1,,48aa48aa-4566-4f1c-92b9-d3a8b66f0e7d,98,Unknown,Success,LOCATION_TYPE_STREET_ADDRESS,Kilometers,ArealInterpolation,180540.284,ArealInterpolationGeometricCentroid,State,100,FeatureClassBased,ReturnAll,,StateCentroid,,,0,38.3088593907541,-92.5082058055362,Exact
55,12535 W SMOKEY DR,SURPRISE,AZ,85378,8881,http://www.riosalado.edu/,RIO SALADO COMMUNITY COLLEGE - LIFE LONG LEARNING CENTER,480) 377-4290,56,USCGeocoder,145,1,4.1,,eed9a59e-47de-41fc-8710-2d8a0010d655,3,StreetSegmentInterpolation,Success,LOCATION_TYPE_STREET_ADDRESS,Meters,LinearInterpolation,11651.19331455,LinearInterpolationAddressRange,StreetSegment,100,FeatureClassBased,ReturnAll,,AddressRangeInterpolation,,,0,33.6374605055568,-112.330008121705,Exact
56,"56TH MISSION SUPPORT CENTER (BUILDING 1150) ROOM 3138,7383 NORTH LITCHFIELD ROAD",LUKE AFB,AF,85309,7153,http://www.riosalado.edu/,RIO SALADO COMMUNITY COLLEGE - LUKE AIRFORCE BASE,480) 377-4011,57,USCGeocoder,5,1,4.1,,bfcaf75d-78de-4b6b-9aca-2b5420297c8f,9,AddressZIPCentroid,Success,LOCATION_TYPE_STREET_ADDRESS,Meters,ArealInterpolation,0,ArealInterpolationGeometricCentroid,USPSZip,100,FeatureClassBased,ReturnAll,,USPSZipAreaCentroid,,,0,33.538316,-112.370171,Exact
57,2323 WEST 14TH STREET,TEMPE,AZ,85281,9931,http://www.riosalado.edu/,RIO SALADO COMMUNITY COLLEGE - TEMPE CAMPUS,480) 517-8560,58,USCGeocoder,133,1,4.1,,d53bd0a1-af24-46cb-8fee-ff006bc16018,2,Parcel,Success,LOCATION_TYPE_STREET_ADDRESS,Meters,ArealInterpolation,13316.3286474943,ArealInterpolationGeometricCentroid,Parcel,98.9940828402367,FeatureClassBased,ReturnAll,,ExactParcelCentroidPoint,,,0,33.4128717370293,-111.974358186096,Relaxed
58,"220 W. 6TH STREET, ROOM B116",TUCSON,AZ,85719,9350,http://www.arizona.edu/,UNIVERSITY OF ARIZONA - TESTING CENTER,520) 621-7589,59,USCGeocoder,74,1,4.1,,0b88861f-e4fc-491d-a531-8e9eda9d6a97,0,AddressPoint,Success,LOCATION_TYPE_STREET_ADDRESS,Meters,ArealInterpolation,0,ArealInterpolationGeometricCentroid,Parcel,98.9349112426036,FeatureClassBased,ReturnAll,,AddressPoint,,,0,32.227968,-110.9762176,Relaxed
59,THIS TESTING LOCATION ONLY ACCEPTS CREDIT CARD FOR THE ADMINISTRATION/PROCTOR FEE PAYMENT. THIS FEE IS NON-REFUNDABLE. 1625 W. FOUNTAINHEAD PARKWAY,TEMPE,AZ,85282,8231,http://www.phoenix.edu/,UNIVERSITY OF PHOENIX - MAIN CAMPUS,480) 804-7600,60,USCGeocoder,4,1,4.1,,b5b4a598-48f4-4f30-9fc4-c7b762e4e78c,9,AddressZIPCentroid,Success,LOCATION_TYPE_STREET_ADDRESS,Meters,ArealInterpolation,0,ArealInterpolationGeometricCentroid,USPSZip,100,FeatureClassBased,ReturnAll,,USPSZipAreaCentroid,,,0,33.39087,-111.925598,Exact
60,"THIS TESTING LOCATION ONLY ACCEPTS CREDIT CARD FOR THE ADMINISTRATION/PROCTOR FEE PAYMENT. THIS FEE IS NON-REFUNDABLE.2550 WEST UNION HILLS DRIVE, SUITE #100",PHOENIX,AZ,85027,9057,http://www.phoenix.edu/,UNIVERSITY OF PHOENIX - NORTHWEST LEARNING CENTER,480) 804-7600,61,USCGeocoder,4,1,4.1,,23b4969c-a2ee-4641-be63-c0372b5ddd5b,9,AddressZIPCentroid,Success,LOCATION_TYPE_STREET_ADDRESS,Meters,ArealInterpolation,0,ArealInterpolationGeometricCentroid,USPSZip,100,FeatureClassBased,ReturnAll,,USPSZipAreaCentroid,,,0,33.82895,-112.1217,Exact
61,"THIS TESTING LOCATION ONLY ACCEPTS CREDIT CARD FOR THE ADMINISTRATION/PROCTOR FEE PAYMENT. THIS FEE IS NON-REFUNDABLE.9520 WEST PALM LANE, SUITE #150",PHOENIX,AZ,85037,9106,http://www.phoenix.edu/,UNIVERSITY OF PHOENIX- WEST VALLEY LEARNING CENTER,480) 804-7600,62,USCGeocoder,6,1,4.1,,8d56e537-004f-4712-adfa-f4eb0553149f,9,AddressZIPCentroid,Success,LOCATION_TYPE_STREET_ADDRESS,Meters,ArealInterpolation,0,ArealInterpolationGeometricCentroid,USPSZip,100,FeatureClassBased,ReturnAll,,USPSZipAreaCentroid,,,0,33.494055,-112.254448,Exact
62,300 S CRAYCROFT RD,TUCSON,AZ,85711,8248,http://www.phoenix.edu/,UNIVERSITY OF PHOENIX - WILLIAMS CENTRE LEARNING CENTER,520) 239-5225,63,USCGeocoder,29,1,4.1,,864757a0-a976-4693-8463-91e83ff1e0e2,0,AddressPoint,Success,LOCATION_TYPE_STREET_ADDRESS,Meters,ArealInterpolation,0,ArealInterpolationGeometricCentroid,Parcel,100,FeatureClassBased,ReturnAll,,AddressPoint,,,0,32.2177848,-110.8759345,Exact
63,899 E. PLAZA CIRCLE,YUMA,AZ,85365,8978,http://www.phoenix.edu/,UNIVERSITY OF PHOENIX - YUMA LEARNING CENTER,928) 210-1472,64,USCGeocoder,34,1,4.1,,87599108-339d-4fa0-a255-434017934d2e,0,AddressPoint,Success,LOCATION_TYPE_STREET_ADDRESS,Meters,ArealInterpolation,0,ArealInterpolationGeometricCentroid,Parcel,97.3372781065089,FeatureClassBased,ReturnAll,,AddressPoint,,,0,32.70439,-114.6112259,Relaxed
64,"2702 NORTH 3RD STREET, STE 1050",PHOENIX,AZ,85004,8214,http://www.wbu.edu/colleges-in-phoenix/,WAYLAND BAPTIST UNIVERSITY,602-279-1011,65,USCGeocoder,12,1,4.1,,c721d7c8-4bff-4da5-a73a-a7f145f5c75e,0,AddressPoint,Success,LOCATION_TYPE_STREET_ADDRESS,Meters,ArealInterpolation,0,ArealInterpolationGeometricCentroid,Parcel,100,FeatureClassBased,ReturnAll,,AddressPoint,,,0,33.4778916,-112.0705666,Exact
65,"140 METHUSA AVE., BLDG 2453",EDWARDS AFB,AF,93524,9204,http://www.amu.apus.edu,AMERICAN PUBLIC UNIVERSITY SYSTEM - EDWARDS AFB NTC,661) 524-4431,66,USCGeocoder,159,1,4.1,,10706293-d11d-4e48-922c-55e90a6987c2,9,AddressZIPCentroid,Success,LOCATION_TYPE_STREET_ADDRESS,Meters,ArealInterpolation,0,ArealInterpolationGeometricCentroid,USPSZip,100,FeatureClassBased,ReturnAll,,USPSZipAreaCentroid,,,0,34.919545,-117.946773,Exact
66,400 CORPORATE POINTE,CULVER CITY,CI,7615,8704,http://www.antiochla.edu/,ANTIOCH UNIVERSITY - LOS ANGELES,310-578-1080 X206,67,USCGeocoder,168,1,4.1,,97a44085-33af-4bf3-ae2d-55afe0f090b4,99,Unmatchable,ExceptionOccurred,LOCATION_TYPE_UNKNOWN,Unknown,NotAttempted,-1,NotAttempted,Unknown,0,FeatureClassBased,ReturnAll,,Unmatchable,,,0,0,0,
67,8620 SPECTRUM CENTER BLVD,SAN DIEGO,DI,92123,9182,http://www.ashford.edu,ASHFORD UNIVERSITY - SAN DIEGO,866) 974-5700,68,USCGeocoder,122,1,4.1,,06203f22-6ab7-4e6b-b454-62b59a684fd7,3,StreetSegmentInterpolation,Success,LOCATION_TYPE_STREET_ADDRESS,Meters,LinearInterpolation,6379.65810537152,LinearInterpolationAddressRange,StreetSegment,100,FeatureClassBased,ReturnAll,,AddressRangeInterpolation,,,0,32.827181825488,-117.142482172155,Exact
68,"LEARNING ENRICHMENT CENTER, 901 E. ALOSTA AVENUE",AZUSA,CA,91702,7946,http://www.apu.edu/,AZUSA PACIFIC UNIVERSITY,626-815-3849,69,USCGeocoder,6,1,4.1,,adbdfc72-2e46-4ed3-b305-357368b940cd,9,AddressZIPCentroid,Success,LOCATION_TYPE_STREET_ADDRESS,Meters,ArealInterpolation,0,ArealInterpolationGeometricCentroid,USPSZip,100,FeatureClassBased,ReturnAll,,USPSZipAreaCentroid,,,0,34.124881,-117.903021,Exact
69,2700 BARSTOW ROAD,BARSTOW,CA,92311,9053,http://www.barstow.cc.edu/,BARSTOW COMMUNITY COLLEGE,760-252-2411 X7373,70,USCGeocoder,137,1,4.1,,9337ddc2-6d06-4d5c-ab61-dcd4e670316d,3,StreetSegmentInterpolation,Success,LOCATION_TYPE_STREET_ADDRESS,Meters,LinearInterpolation,1903.39152495144,LinearInterpolationAddressRange,StreetSegment,100,FeatureClassBased,ReturnAll,,AddressRangeInterpolation,,,0,34.8732884960133,-117.022037981511,Exact
70,FORT ERWINBARSTOW ROAD BUILDING 285,FORT IRWIN,IR,5060,7138,http://www.barstow.cc.edu/,BARSTOW COMMUNITY COLLEGE - FORT IRWIN CAMPUS,760) 380-3905,71,USCGeocoder,5,1,4.1,,eb897c26-1da4-41be-9db8-34ffb7baca4a,9,AddressZIPCentroid,Success,LOCATION_TYPE_STREET_ADDRESS,Meters,ArealInterpolation,0,ArealInterpolationGeometricCentroid,USPSZip,100,FeatureClassBased,ReturnAll,,USPSZipAreaCentroid,,,0,43.931946,-72.644794,Exact
71,7460 MISSION VALLEY ROAD,SAN DIEGO,DI,92108,9300,http://www.brandman.edu/,BRANDMAN UNIVERSITY,619-296-8660,72,USCGeocoder,134,1,4.1,,d953a498-195d-4c88-af5a-b0e5c6a84632,3,StreetSegmentInterpolation,Success,LOCATION_TYPE_STREET_ADDRESS,Meters,LinearInterpolation,90041.659826813,LinearInterpolationAddressRange,StreetSegment,100,FeatureClassBased,ReturnAll,,AddressRangeInterpolation,,,0,32.7789805205422,-117.161022526531,Exact
72,"40015 SIERRA HIGHWAY, B160",PALMDALE,CA,93550,9836,http://www.brandman.edu,BRANDMAN UNIVERSITY,661-267-2001,73,USCGeocoder,37,1,4.1,,a4b002d6-57e0-433f-b0bc-460d3105dcfa,0,AddressPoint,Success,LOCATION_TYPE_STREET_ADDRESS,Meters,ArealInterpolation,0,ArealInterpolationGeometricCentroid,Parcel,100,FeatureClassBased,ReturnAll,,AddressPoint,,,0,34.6098084,-118.1235628,Exact
73,"MONTEREY, CA   93940",831,,3738,7338,http://www.brandman.edu/monterey/,BRANDMAN UNIVERSITY - MONTEREY CAMPUS,831) 647-3726,74,USCGeocoder,10,1,4.1,,9d53eeec-4ce2-4432-8112-13499a6cca24,99,Unmatchable,Unmatchable,LOCATION_TYPE_UNKNOWN,Unknown,NotAttempted,-1,NotAttempted,Unmatchable,0,FeatureClassBased,ReturnAll,,Unmatchable,,,0,0,0,
74,"MONTEREY, CA   93940",831,,3738,9655,http://www.brandman.edu,BRANDMAN UNIVERSITY - MONTEREY CAMPUS,831) 647-3736,75,USCGeocoder,10,1,4.1,,a867a6fc-b758-452b-8205-0ecedf10d7fd,99,Unmatchable,Unmatchable,LOCATION_TYPE_UNKNOWN,Unknown,NotAttempted,-1,NotAttempted,Unmatchable,0,FeatureClassBased,ReturnAll,,Unmatchable,,,0,0,0,
75,1000 EAST VICTORIA STREET,CARSON,CA,90747,9078,http://www.csudh.edu/,CALIFORNIA STATE UNIVERSITY - DOMINGUEZ HILLS,310-243-3909,76,USCGeocoder,13,1,4.1,,8b4d0956-69b3-45e2-b7fd-c5572d0a3bde,0,AddressPoint,Success,LOCATION_TYPE_STREET_ADDRESS,Meters,ArealInterpolation,0,ArealInterpolationGeometricCentroid,Parcel,100,FeatureClassBased,ReturnAll,,AddressPoint,,,0,33.8638833,-118.255761,Exact
76,CALIFORNIA STATE UNIVERSITY - FRESNO CAMPUS,PLEASE FOLLOW THE LINK BELOW TO REGISTERFAMILY,FO,,9498,http://fresnostate.edu/studentaffairs/examination/,CALIFORNIA STATE UNIVERSITY - FRESNO CAMPUS,"FRESNO, CA   93740",77,USCGeocoder,8,1,4.1,,90f8e125-0c58-470b-a2f8-4c852933d4c5,99,Unmatchable,Unmatchable,LOCATION_TYPE_UNKNOWN,Unknown,NotAttempted,-1,NotAttempted,Unmatchable,0,FeatureClassBased,ReturnAll,,Unmatchable,,,0,0,0,
77,"3335 BUCHANAN STREET, BUILDING 152",SAN DIEGO,DI,92136,7229,http://www.ctcd.edu/,CENTRAL TEXAS COLLEGE,800-784-5470,78,USCGeocoder,164,1,4.1,,4b100e75-8997-4a31-ab8a-c05beff637d7,9,AddressZIPCentroid,Success,LOCATION_TYPE_STREET_ADDRESS,Meters,ArealInterpolation,0,ArealInterpolationGeometricCentroid,USPSZip,100,FeatureClassBased,ReturnAll,,USPSZipAreaCentroid,,,0,32.678744,-117.119958,Exact
78,"NAVY CAMPUS PACIFIC, 1000 ROE STREET, BUILDING 2005",SAN DIEGO,DI,7024,7188,http://www.ctcd.edu/,CENTRAL TEXAS COLLEGE,800-784-5470,79,USCGeocoder,6,1,4.1,,0a4e8462-9563-41a4-a84b-4d47400dcd2e,9,AddressZIPCentroid,Success,LOCATION_TYPE_STREET_ADDRESS,Meters,ArealInterpolation,0,ArealInterpolationGeometricCentroid,USPSZip,100,FeatureClassBased,ReturnAll,,USPSZipAreaCentroid,,,0,40.851376,-73.975825,Exact
79,"5405 GARDEN GROVE BLVD, SUITE 100",WESTMINSTER,CA,92683,7313,http://military.coastline.edu/,COASTLINE COMMUNITY COLLEGE,714-241-4967,80,USCGeocoder,138,1,4.1,,bbde3344-828f-4bc2-8a48-095e688b5863,3,StreetSegmentInterpolation,Success,LOCATION_TYPE_STREET_ADDRESS,Meters,LinearInterpolation,10902.2489747363,LinearInterpolationAddressRange,StreetSegment,88.0177514792899,FeatureClassBased,ReturnAll,,AddressRangeInterpolation,,,0,33.7739691003151,-118.038424440727,Relaxed
80,BLDG 1331 BOX 555020A STREET &AMP; 12TH STREET BLDG. 1331,CAMP PENDLETON,PE,92055,7252,http://military.coastline.edu/,COASTLINE COMMUNITY COLLEGE,619-375-8377,81,USCGeocoder,6,1,4.1,,746bfa4c-1709-4abc-b3b3-8957b33464aa,9,AddressZIPCentroid,Success,LOCATION_TYPE_STREET_ADDRESS,Meters,ArealInterpolation,0,ArealInterpolationGeometricCentroid,USPSZip,100,FeatureClassBased,ReturnAll,,USPSZipAreaCentroid,,,0,33.291239,-117.301241,Exact
81,COASTLINE COMMUNITY COLLEGE,140 SYLVESTER RD,SY,103,7228,619-726-3664,COASTLINE COMMUNITY COLLEGE,"SAN DIEGO, CA   92106",82,USCGeocoder,10,1,4.1,,26c4fe01-2842-4ecf-9e19-a54696eeb8d3,99,Unmatchable,Unmatchable,LOCATION_TYPE_UNKNOWN,Unknown,NotAttempted,-1,NotAttempted,Unmatchable,0,FeatureClassBased,ReturnAll,,Unmatchable,,,0,0,0,
82,8888 BALBOA AVENUE,SAN DIEGO,DI,92123,8734,http://www.coleman.edu/,COLEMAN UNIVERSITY,858) 966-3970,83,USCGeocoder,121,1,4.1,,36df8938-8b7f-4e6c-b3e8-82e62de8773a,3,StreetSegmentInterpolation,Success,LOCATION_TYPE_STREET_ADDRESS,Meters,LinearInterpolation,64205.8653126401,LinearInterpolationAddressRange,StreetSegment,92.0118343195266,FeatureClassBased,ReturnAll,,AddressRangeInterpolation,,,0,32.8208133130784,-117.137665413308,Relaxed
83,"PALM DESERT, CA   92260",760,,7420,8864,http://collegeofthedesert.edu/community/pace/pages/pex.aspx,"COLLEGE OF THE DESERT, PACE",http://www.collegeofthedesert.edu/pace,84,USCGeocoder,3,1,4.1,,5d9216aa-3939-4fc5-ad2e-5820981599a5,9,AddressZIPCentroid,Success,LOCATION_TYPE_STREET_ADDRESS,Meters,ArealInterpolation,0,ArealInterpolationGeometricCentroid,USPSZip,100,FeatureClassBased,ReturnAll,,USPSZipAreaCentroid,,,0,41.02815,-74.298139,Exact
84,883 W. WASHINGTON BOULEVARD,CRESCENT CITY,CI,8361,9766,http://www.redwoods.cc.ca.us/,COLLEGE OF THE REDWOODS,707-465-2306,85,USCGeocoder,126,1,4.1,,5f40f038-166b-4ca8-bf96-ee7cde283eae,9,AddressZIPCentroid,Success,LOCATION_TYPE_STREET_ADDRESS,Meters,ArealInterpolation,0,ArealInterpolationGeometricCentroid,USPSZip,100,FeatureClassBased,ReturnAll,,USPSZipAreaCentroid,,,0,39.482485,-75.023974,Exact
85,826 HANCOCK CIRCLE,NAS LEMOORE,LE,5009,7178,http://www.ccis.edu/nationwide/lemoore/,COLUMBIA COLLEGE,559-998-8570,86,USCGeocoder,241,1,4.1,,4f6fefda-7266-42ea-888b-496557e94f75,9,AddressZIPCentroid,Success,LOCATION_TYPE_STREET_ADDRESS,Meters,ArealInterpolation,0,ArealInterpolationGeometricCentroid,USPSZip,100,FeatureClassBased,ReturnAll,,USPSZipAreaCentroid,,,0,43.652072,-72.32299,Exact
86,3880 KILROY AIRPORT WAY,LONG BEACH,BE,90806,7832,http://www.devry.edu/,DEVRY UNIVERSITY,562-997-5336,87,USCGeocoder,34,1,4.1,,77184a3a-c8d9-491d-ab13-6325aa560736,0,AddressPoint,Success,LOCATION_TYPE_STREET_ADDRESS,Meters,ArealInterpolation,0,ArealInterpolationGeometricCentroid,Parcel,100,FeatureClassBased,ReturnAll,,AddressPoint,,,0,33.8093485,-118.144995,Exact
87,"BURBANK, CA   91502",818,,4924,9302,http://www.doveds.com,DOV EDUCATIONAL SERVICES,TEST@DOVEDS.COM.,88,USCGeocoder,6,1,4.1,,146ebc0e-047e-4cf2-8dca-f99e89f33894,9,AddressZIPCentroid,Success,LOCATION_TYPE_STREET_ADDRESS,Meters,ArealInterpolation,0,ArealInterpolationGeometricCentroid,USPSZip,100,FeatureClassBased,ReturnAll,,USPSZipAreaCentroid,,,0,44.755486,-69.554143,Exact
88,"5001 AIRPORT PLAZA DRIVE, SUITE 150",LONG BEACH,BE,90815,8718,http://www.erau.edu/,EMBRY-RIDDLE AERONAUTICAL UNIVERSITY,562-627-5870,89,USCGeocoder,94,1,4.1,,393a39d9-57a6-498e-a1b9-702e347bb8b2,2,Parcel,Success,LOCATION_TYPE_STREET_ADDRESS,Meters,ArealInterpolation,9720.87952252102,ArealInterpolationGeometricCentroid,Parcel,100,FeatureClassBased,ReturnAll,,ExactParcelCentroidPoint,,,0,33.808636989356,-118.134936634245,Exact
89,1819 SOUTH EXCISE AVENUE,ONTARIO,CA,8525,8251,http://www.everest.edu/,EVEREST COLLEGE,909-484-4311,90,USCGeocoder,28,1,4.1,,ef7a810e-3eea-409f-8f7a-63e96a5cd1e7,0,AddressPoint,Success,LOCATION_TYPE_STREET_ADDRESS,Meters,ArealInterpolation,0,ArealInterpolationGeometricCentroid,Parcel,93.1952662721894,FeatureClassBased,ReturnAll,,AddressPoint,,,0,34.0404483,-117.5767324,Relaxed
90,"9251 E GARVEY AVE, GOLDEN VISTA PLAZA - SUITE V",EL MONTE,MO,91733,8222,http://www.eznetwork.com/,EZ NETWORK SYSTEMS / ALISO INT\\\'L,626) 715-8777,91,USCGeocoder,148,1,4.1,,43cccf22-ca0c-462c-9314-a2216e8d005b,9,AddressZIPCentroid,Success,LOCATION_TYPE_STREET_ADDRESS,Meters,ArealInterpolation,0,ArealInterpolationGeometricCentroid,USPSZip,100,FeatureClassBased,ReturnAll,,USPSZipAreaCentroid,,,0,34.051383,-118.044588,Exact
91,"12345 ELMONTE ROAD, RM 5006",LOS ALTOS,AL,94022,9826,http://www.foothill.edu/,FOOTHILL COLLEGE,650-949-7230 X5426,92,USCGeocoder,140,1,4.1,,1e6b601e-8ef5-4277-9516-5c75b50ad7c3,9,AddressZIPCentroid,Success,LOCATION_TYPE_STREET_ADDRESS,Meters,ArealInterpolation,0,ArealInterpolationGeometricCentroid,USPSZip,100,FeatureClassBased,ReturnAll,,USPSZipAreaCentroid,,,0,37.36656,-122.13696,Exact
92,321 E. CHAPMAN AVENUE,FULLERTON,CA,92832,8029,http://www.fullcoll.edu/,FULLERTON COLLEGE,714-732-5533,93,USCGeocoder,142,1,4.1,,ef51d60b-e418-4969-9e08-7961f9cef219,3,StreetSegmentInterpolation,Success,LOCATION_TYPE_STREET_ADDRESS,Meters,LinearInterpolation,5015.91056623752,LinearInterpolationAddressRange,StreetSegment,100,FeatureClassBased,ReturnAll,,AddressRangeInterpolation,,,0,33.8741001538939,-117.919270055541,Exact
93,"10850 WILSHIRE BLVD, SUITE 570",LOS ANGELES,AN,90024,8503,http://www.geps.org/,GLOBAL EDUCATION PLACEMENT SERVICES,424) 901-8500,94,USCGeocoder,88,1,4.1,,935943ba-1506-4a43-ad00-afe9594522f9,2,Parcel,Success,LOCATION_TYPE_STREET_ADDRESS,Meters,ArealInterpolation,5938.42841002345,ArealInterpolationGeometricCentroid,Parcel,100,FeatureClassBased,ReturnAll,,ExactParcelCentroidPoint,,,0,34.0589551759479,-118.441351182558,Exact
94,2500 E. NUTWOOD AVENUE,FULLERTON,CA,92831,8540,http://www.hui.edu/,HOPE INTERNATIONAL UNIVERSITY,714-879-3901 X3561,95,USCGeocoder,120,1,4.1,,f08c237d-4f68-4751-87a1-16d1af56c03b,3,StreetSegmentInterpolation,Success,LOCATION_TYPE_STREET_ADDRESS,Meters,LinearInterpolation,1424.09112875769,LinearInterpolationAddressRange,StreetSegment,97.9289940828402,FeatureClassBased,ReturnAll,,AddressRangeInterpolation,,,0,33.8781098449333,-117.885956382979,Relaxed
95,HUMBOLDT STATE UNIVERSITY,1 HARPST STREET,HA,,7814,707-826-5661,HUMBOLDT STATE UNIVERSITY,"ARCATA, CA   95521",96,USCGeocoder,8,1,4.1,,5db63c1d-09a3-48b2-ab84-228cbe588ebe,99,Unmatchable,Unmatchable,LOCATION_TYPE_UNKNOWN,Unknown,NotAttempted,-1,NotAttempted,Unmatchable,0,FeatureClassBased,ReturnAll,,Unmatchable,,,0,0,0,
96,"4201 WILSHIRE BLVD, SUITE 610",LOS ANGELES,AN,90010,8476,http://www.iau.la/,INTERNATIONAL AMERICAN UNIVERSITY,323-938-4428,97,USCGeocoder,37,1,4.1,,41751779-5e63-463f-bd4e-af7189d8742a,0,AddressPoint,Success,LOCATION_TYPE_STREET_ADDRESS,Meters,ArealInterpolation,0,ArealInterpolationGeometricCentroid,Parcel,100,FeatureClassBased,ReturnAll,,AddressPoint,,,0,34.0618919,-118.3191099,Exact
97,"5500 IRVINE CENTER, A-304",IRVINE,CA,92618,7963,http://www.ivc.edu/,IRVINE VALLEY COLLEGE,949-451-5100,98,USCGeocoder,125,1,4.1,,a24c19d6-e057-4c43-9d5a-37e2f28d54a9,3,StreetSegmentInterpolation,Success,LOCATION_TYPE_STREET_ADDRESS,Meters,LinearInterpolation,4715.97882185946,LinearInterpolationAddressRange,StreetSegment,94.0828402366864,FeatureClassBased,ReturnAll,,AddressRangeInterpolation,,,0,33.6772647623078,-117.77565872828,Relaxed;Soundex
98,4500 RIVERWALK PARKWAY,RIVERSIDE,CA,92515,8750,http://www.lasierra.edu/,LA SIERRA UNIVERSITY,951-785-2453,99,USCGeocoder,28,1,4.1,,3912cb9c-aef3-4b7f-9761-690319bcee2a,0,AddressPoint,Success,LOCATION_TYPE_STREET_ADDRESS,Meters,ArealInterpolation,0,ArealInterpolationGeometricCentroid,Parcel,98.9349112426036,FeatureClassBased,ReturnAll,,AddressPoint,,,0,33.9101216,-117.4957469,Relaxed
99,9393 LIGHTWAVE AVENUE #233A,SAN DIEGO,DI,92123,7858,http://www.nu.edu/,NATIONAL UNIVERSITY,858) 541-7951,100,USCGeocoder,26,1,4.1,,b172ab02-91b8-4d92-832f-05d6351da8a5,0,AddressPoint,Success,LOCATION_TYPE_STREET_ADDRESS,Meters,ArealInterpolation,0,ArealInterpolationGeometricCentroid,Parcel,100,FeatureClassBased,ReturnAll,,AddressPoint,,,0,32.82808,-117.1277198,Exact
100,NATIONAL UNIVERSITY - 29 PALMS BASE,NATIONAL UNIVERSITY BLDG 1526,UN,,7213,760) 830-6887,NATIONAL UNIVERSITY - 29 PALMS BASE,"29 PALMS, CA   92278",101,USCGeocoder,9,1,4.1,,768f2668-7f62-4826-92ea-da2d89e97b3c,99,Unmatchable,Unmatchable,LOCATION_TYPE_UNKNOWN,Unknown,NotAttempted,-1,NotAttempted,Unmatchable,0,FeatureClassBased,ReturnAll,,Unmatchable,,,0,0,0,
101,"MCAS MIRAMAR, BUILDING 5305",SAN DIEGO,DI,92145,7250,http://www.nu.edu/,NATIONAL UNIVERSITY - MIRAMAR NAS BASE,619) 563-7355,102,USCGeocoder,5,1,4.1,,f375ee3d-66df-4318-b915-b250a6303b58,9,AddressZIPCentroid,Success,LOCATION_TYPE_STREET_ADDRESS,Meters,ArealInterpolation,0,ArealInterpolationGeometricCentroid,USPSZip,100,FeatureClassBased,ReturnAll,,USPSZipAreaCentroid,,,0,32.874445,-117.152969,Exact
102,"1835 W. ORANGEWOOD, SUITE 200",ORANGE,CA,92868,8193,http://www.nrclc.com/,NR COMPUTER LEARNING CENTER,714) 505-3475,103,USCGeocoder,39,1,4.1,,915c6940-31d7-4655-8ba5-3964060537c9,0,AddressPoint,Success,LOCATION_TYPE_STREET_ADDRESS,Meters,ArealInterpolation,0,ArealInterpolationGeometricCentroid,Parcel,91.4201183431953,FeatureClassBased,ReturnAll,,AddressPoint,,,0,33.795717,-117.872246,Relaxed
103,ONE ANGWIN AVENUE,ANGWIN,CA,94508,8631,http://www.puc.edu/,PACIFIC UNION COLLEGE,707-965-7080,104,USCGeocoder,107,1,4.1,,07a4a2f2-bf2f-47d6-9149-bb92665addb9,2,Parcel,Success,LOCATION_TYPE_STREET_ADDRESS,Meters,ArealInterpolation,1687.68497765064,ArealInterpolationGeometricCentroid,Parcel,100,FeatureClassBased,ReturnAll,,ExactParcelCentroidPoint,,,0,38.5704333944819,-122.443024394755,Exact
104,4007 CAMINO DEL RIO SOUTH,SAN DIEGO,DI,92108,8793,http://www.pointloma.edu/,POINT LOMA NAZARENE UNIVERSITY,619) 563-2812,105,USCGeocoder,97,1,4.1,,a0e953ba-2a6d-4db1-b150-15f9f86c25df,3,StreetSegmentInterpolation,Success,LOCATION_TYPE_STREET_ADDRESS,Meters,LinearInterpolation,5886.47997863637,LinearInterpolationAddressRange,StreetSegment,100,FeatureClassBased,ReturnAll,,AddressRangeInterpolation,,,0,32.7779989990983,-117.107621415862,Exact
105,3600 WORKMAN MILL ROAD,WHITTIER,CA,90601,9176,http://www.riohondo.edu/,RIO HONDO COLLEGE,562-692-0921 X3247,106,USCGeocoder,117,1,4.1,,b4c31072-b438-4fdd-adcd-212ff0875ed3,3,StreetSegmentInterpolation,Success,LOCATION_TYPE_STREET_ADDRESS,Meters,LinearInterpolation,10242.4211651513,LinearInterpolationAddressRange,StreetSegment,100,FeatureClassBased,ReturnAll,,AddressRangeInterpolation,,,0,34.0195149696039,-118.037952406386,Exact
106,3835 FREEPORT BOULEVARD,SACRAMENTO,CA,95822,8325,http://www.scc.losrios.edu/,SACRAMENTO CITY COLLEGE,916-558-2540,107,USCGeocoder,84,1,4.1,,5178710c-654f-4ec8-b45d-23098e465d05,3,StreetSegmentInterpolation,Success,LOCATION_TYPE_STREET_ADDRESS,Meters,LinearInterpolation,1830.45800600294,LinearInterpolationAddressRange,StreetSegment,100,FeatureClassBased,ReturnAll,,AddressRangeInterpolation,,,0,38.5423937599853,-121.491423767401,Exact
107,"6130 FREEPORT BLVD, SUITE 200A",SACRAMENTO,CA,95822,7897,http://www.sactestproctoring.com/,SACRAMENTO TEST PROCTORING SERVICES,916-591-5003,108,USCGeocoder,45,1,4.1,,56eea444-b3ce-4e57-b2bd-28ae98d20a44,2,Parcel,Success,LOCATION_TYPE_STREET_ADDRESS,Meters,ArealInterpolation,3810.01480782032,ArealInterpolationGeometricCentroid,Parcel,100,FeatureClassBased,ReturnAll,,ExactParcelCentroidPoint,,,0,38.5151595277362,-121.500846548381,Exact
108,"NAVY BASE, 32ND STREET",SAN DIEGO,DI,92136,7196,http://www.sdccd.edu/,SAN DIEGO CITY COLLEGE,619-556-4320,109,USCGeocoder,3,1,4.1,,35637665-39c5-4195-8dc3-7b53eacd266d,9,AddressZIPCentroid,Success,LOCATION_TYPE_STREET_ADDRESS,Meters,ArealInterpolation,0,ArealInterpolationGeometricCentroid,USPSZip,100,FeatureClassBased,ReturnAll,,USPSZipAreaCentroid,,,0,32.678744,-117.119958,Exact
109,"MARINE CORPS AIR STATION MIRAMAR, BUILDING 5305 MIRAMAR WAY",SAN DIEGO,DI,92145,7134,http://www.sdccd.edu/,SAN DIEGO CITY COLLEGE,858-586-1577,110,USCGeocoder,3,1,4.1,,81013ca8-6289-4072-b176-688f8071c78b,9,AddressZIPCentroid,Success,LOCATION_TYPE_STREET_ADDRESS,Meters,ArealInterpolation,0,ArealInterpolationGeometricCentroid,USPSZip,100,FeatureClassBased,ReturnAll,,USPSZipAreaCentroid,,,0,32.874445,-117.152969,Exact
110,5500 CAMPANILE DRIVE,SAN DIEGO,DI,7449,7862,http://www.sa.sdsu.edu/testofc/,SAN DIEGO STATE UNIVERSITY,619-594-5216,111,USCGeocoder,165,1,4.1,,368d7110-e351-474a-81c5-8d380402eaec,99,Unmatchable,ExceptionOccurred,LOCATION_TYPE_UNKNOWN,Unknown,NotAttempted,-1,NotAttempted,Unknown,0,FeatureClassBased,ReturnAll,,Unmatchable,,,0,0,0,
111,34050 COUNTY LINE ROAD,YUCAIPA,CA,92399,8846,http://www.simplexunited.com,SIMPLEX UNITED BUSINESS AND CAREER CENTER,909) 795-4979,112,USCGeocoder,172,1,4.1,,c9bd4d42-ca61-4116-9e72-8da9465f3181,3,StreetSegmentInterpolation,Success,LOCATION_TYPE_STREET_ADDRESS,Meters,LinearInterpolation,5492.23270415631,LinearInterpolationAddressRange,StreetSegment,100,FeatureClassBased,ReturnAll,,AddressRangeInterpolation,,,0,34.0040925248178,-117.061522595667,Exact
112,1801 E. COTATI AVE.,ROHNERT PARK,PA,94928,8264,http://www.sonoma.edu/,SONOMA STATE UNIVERSITY,707-664-2880,113,USCGeocoder,142,1,4.1,,723b0489-1c89-4234-90ed-ff9549f63b1b,9,AddressZIPCentroid,Success,LOCATION_TYPE_STREET_ADDRESS,Meters,ArealInterpolation,0,ArealInterpolationGeometricCentroid,USPSZip,100,FeatureClassBased,ReturnAll,,USPSZipAreaCentroid,,,0,38.343934,-122.699887,Exact
113,21726 PLACERITA CANYON ROAD,SANTA CLARITA,CL,91321,8730,http://www.masters.edu/,THE MASTER'S COLLEGE,661-259-3540 X3002 or X3003,114,USCGeocoder,77,1,4.1,,dacab566-3d85-49e7-9035-e6d9758b4b7d,2,Parcel,Success,LOCATION_TYPE_STREET_ADDRESS,Meters,ArealInterpolation,1896.6972797662,ArealInterpolationGeometricCentroid,Parcel,98.9940828402367,FeatureClassBased,ReturnAll,,ExactParcelCentroidPoint,,,0,34.3815190158435,-118.516069446435,Relaxed
114,TOURO UNIVERSITY WORLDWIDE,10601 CALLE LEE,CA,179,7142,480) 652-0777,TOURO UNIVERSITY WORLDWIDE,"LOS ALAMITOS, CA   90720",115,USCGeocoder,62,1,4.1,,35e323b5-0b55-4917-917d-6ff0750798fd,98,Unknown,Success,LOCATION_TYPE_STREET_ADDRESS,Kilometers,ArealInterpolation,423966.987,ArealInterpolationGeometricCentroid,State,100,FeatureClassBased,ReturnAll,,StateCentroid,,,0,37.2400490280629,-119.503235535758,Exact
115,T.T.I.,241 S DETROIT ST,DE,,9239,323-938-5196,T.T.I.,"LOS ANGELES, CA   90036",116,USCGeocoder,33,1,4.1,,a46994b7-ee6d-4568-b95d-99f135f4deb9,98,Unknown,Success,LOCATION_TYPE_STREET_ADDRESS,Kilometers,ArealInterpolation,6445.768,ArealInterpolationGeometricCentroid,State,100,FeatureClassBased,ReturnAll,,StateCentroid,,,0,39.0627872145123,-75.4366948634987,Exact
116,160 PROMENADE CIRCLE STE. 115,SACRAMENTO,CA,95833,8192,https://myunion.edu/,UNION INSTITUTE &AMP; UNIVERSITY - SACRAMENTO ACADEMIC CENTER,916) 692-7843,117,USCGeocoder,125,1,4.1,,bd568db2-7802-4607-8e88-da30ea600979,3,StreetSegmentInterpolation,Success,LOCATION_TYPE_STREET_ADDRESS,Meters,LinearInterpolation,56608.9504637271,LinearInterpolationAddressRange,StreetSegment,96.0059171597633,FeatureClassBased,ReturnAll,,AddressRangeInterpolation,,,0,38.6377150683772,-121.497856744845,Relaxed
117,UNITED STATES UNIVERSITY,830 BAY BOULEVARD,BA,,9437,619-651-2482,UNITED STATES UNIVERSITY,"CHULA VISTA, CA   92007",118,USCGeocoder,7,1,4.1,,1ba256db-6881-443c-bcce-1fa2036dff95,99,Unmatchable,Unmatchable,LOCATION_TYPE_UNKNOWN,Unknown,NotAttempted,-1,NotAttempted,Unmatchable,0,FeatureClassBased,ReturnAll,,Unmatchable,,,0,0,0,
118,"4119 BROAD STREET, STE. 200",SAN LUIS OBISPO,LU,93401,9269,http://laverne.edu/locations/san-luis-obispo/,UNIVERSITY OF LA VERNE,805-788-6200,119,USCGeocoder,43,1,4.1,,a8edc6a2-b1f6-4aa2-b0b4-2b57372b1a5b,0,AddressPoint,Success,LOCATION_TYPE_STREET_ADDRESS,Meters,ArealInterpolation,0,ArealInterpolationGeometricCentroid,Parcel,100,FeatureClassBased,ReturnAll,,AddressPoint,,,0,35.2457196,-120.6420907,Exact
119,1950 THIRD STREET,LA VERNE,VE,91750,9353,http://laverne.edu/locations/laverne/,UNIVERSITY OF LA VERNE,909-593-3511,120,USCGeocoder,108,1,4.1,,f7277000-acdc-4468-a53b-3b7a63e36cf4,2,Parcel,Success,LOCATION_TYPE_STREET_ADDRESS,Meters,ArealInterpolation,73355.7387561947,ArealInterpolationGeometricCentroid,Parcel,98.9940828402367,FeatureClassBased,ReturnAll,,ExactParcelCentroidPoint,,,0,34.099705933201,-117.772935931749,Relaxed;Soundex
120,BUILDING 162 NORTH MUGU RD.,POINT MUGU NAWC,MU,93042,7318,http://laverne.edu/locations/point-mugu/,UNIVERSITY OF LA VERNE,805-986-6900,121,USCGeocoder,3,1,4.1,,45c31e21-1d97-43ba-b87a-7dc5794409cd,9,AddressZIPCentroid,Success,LOCATION_TYPE_STREET_ADDRESS,Meters,ArealInterpolation,0,ArealInterpolationGeometricCentroid,USPSZip,100,FeatureClassBased,ReturnAll,,USPSZipAreaCentroid,,,0,34.122182,-119.092865,Exact
121,"641 UTAH AVEBLDG. 13640, SUITE 230",VANDENBERG AFB,AF,93437,7204,http://laverne.edu/locations/vafb/,UNIVERSITY OF LA VERNE,805-734-6220,122,USCGeocoder,123,1,4.1,,58e15058-b3c2-40a1-9c04-f4c8cf8cfae1,9,AddressZIPCentroid,Success,LOCATION_TYPE_STREET_ADDRESS,Meters,ArealInterpolation,0,ArealInterpolationGeometricCentroid,USPSZip,100,FeatureClassBased,ReturnAll,,USPSZipAreaCentroid,,,0,34.7388,-120.52506,Exact
122,"2855 MICHELLE DRIVE, SUITE 250",IRVINE,CA,92606,8106,http://laverne.edu/locations/irvine/,"UNIVERSITY OF LA VERNE, ORANGE COUNTY REGIONAL CAMPUS",714-505-6936,123,USCGeocoder,117,1,4.1,,18b1b3ae-b642-4730-b90a-186761cc1519,3,StreetSegmentInterpolation,Success,LOCATION_TYPE_STREET_ADDRESS,Meters,LinearInterpolation,10254.0224322812,LinearInterpolationAddressRange,StreetSegment,100,FeatureClassBased,ReturnAll,,AddressRangeInterpolation,,,0,33.7195378600287,-117.798959361332,Exact
123,"500 ESPLANADE DRIVE, SUITE 1000",OXNARD,CA,93036,8297,http://laverne.edu/locations/oxnard/,"UNIVERSITY OF LA VERNE, VENTURA COUNTY REGIONAL CAMPUS",805) 981-6020,124,USCGeocoder,29,1,4.1,,6cdf4ba7-9f19-4e0f-a7d8-1e0f27f478f7,0,AddressPoint,Success,LOCATION_TYPE_STREET_ADDRESS,Meters,ArealInterpolation,0,ArealInterpolationGeometricCentroid,Parcel,95.8579881656805,FeatureClassBased,ReturnAll,,AddressPoint,,,0,34.2287934,-119.1711333,Relaxed
124,"530 HICKAM AVENUE, ROOM C-111",TRAVIS AFB,AF,2751,7139,http://www.umuc.edu/,UNIVERSITY OF MARYLAND UNIVERSITY COLLEGE,707-344-6891,125,USCGeocoder,63,1,4.1,,fe3ef05a-13a6-48c2-bdfb-0b52c130dc59,99,Unmatchable,ExceptionOccurred,LOCATION_TYPE_UNKNOWN,Unknown,NotAttempted,-1,NotAttempted,Unknown,0,FeatureClassBased,ReturnAll,,Unmatchable,,,0,0,0,
125,"1515 WEST. 190TH STREET, 2ND FLOOR",GARDENA,CA,90248,8235,http://www.phoenix.edu/,UNIVERSITY OF PHOENIX,800-888-1968,126,USCGeocoder,193,1,4.1,,39b21761-7ced-4850-b268-1413871c8a59,3,StreetSegmentInterpolation,Success,LOCATION_TYPE_STREET_ADDRESS,Meters,LinearInterpolation,10817.4611891482,LinearInterpolationAddressRange,StreetSegment,98.9940828402367,FeatureClassBased,ReturnAll,,AddressRangeInterpolation,,,0,33.8584438171455,-118.303892310752,Relaxed
126,"SAN JOSE, CA   95134",408,,1167,9958,http://www.phoenix.edu/,UNIVERSITY OF PHOENIX,800-640-0622,127,USCGeocoder,9,1,4.1,,2c9a4c8d-f347-45c4-8c85-b994fad53f21,99,Unmatchable,Unmatchable,LOCATION_TYPE_UNKNOWN,Unknown,NotAttempted,-1,NotAttempted,Unmatchable,0,FeatureClassBased,ReturnAll,,Unmatchable,,,0,0,0,
127,2100 FRANKLIN STREET; SUITE 350,OAKLAND,CA,94612,9926,http://www.phoenix.edu/,UNIVERSITY OF PHOENIX,510-457-3328,128,USCGeocoder,165,1,4.1,,e2593a73-b58e-4149-bf27-a3dfb91a8ccb,3,StreetSegmentInterpolation,Success,LOCATION_TYPE_STREET_ADDRESS,Meters,LinearInterpolation,3770.84449805878,LinearInterpolationAddressRange,StreetSegment,100,FeatureClassBased,ReturnAll,,AddressRangeInterpolation,,,0,37.8099355070499,-122.266666129932,Exact
128,1202 WEST AVENUE J,LANCASTER,CA,93534,8238,http://www.phoenix.edu/,UNIVERSITY OF PHOENIX,800-888-1968,129,USCGeocoder,141,1,4.1,,37e98a9f-8400-4394-bb73-afdbba0df75f,3,StreetSegmentInterpolation,Success,LOCATION_TYPE_STREET_ADDRESS,Meters,LinearInterpolation,3670.38041567034,LinearInterpolationAddressRange,StreetSegment,100,FeatureClassBased,ReturnAll,,AddressRangeInterpolation,,,0,34.6892841382589,-118.15373985441,Exact
129,"4900 CALIFORNIA AVENUE, TOWER A, SUITE 150-A",BAKERSFIELD,CA,93309,8741,http://www.phoenix.edu/,UNIVERSITY OF PHOENIX,661-633-0300 X63108,130,USCGeocoder,26,1,4.1,,f8ddcf3e-5adc-4b4a-83d8-bdedcc02d238,0,AddressPoint,Success,LOCATION_TYPE_STREET_ADDRESS,Meters,ArealInterpolation,0,ArealInterpolationGeometricCentroid,Parcel,100,FeatureClassBased,ReturnAll,,AddressPoint,,,0,35.3653148,-119.056306,Exact
130,299 NORTH EUCLID,PASADENA,CA,91101,8236,http://www.phoenix.edu/,UNIVERSITY OF PHOENIX,800-888-1968,131,USCGeocoder,10,1,4.1,,d19ba1a4-a866-448d-b4d8-3e4d38515883,0,AddressPoint,Success,LOCATION_TYPE_STREET_ADDRESS,Meters,ArealInterpolation,0,ArealInterpolationGeometricCentroid,Parcel,94.0828402366864,FeatureClassBased,ReturnAll,,AddressPoint,,,0,34.1509685,-118.1433998,Relaxed
131,2481 CONSTITUTION DRIVE,LIVERMORE,CA,94551,8353,http://www.phoenix.edu/,UNIVERSITY OF PHOENIX,925-273-8137,132,USCGeocoder,59,1,4.1,,ef1970f2-c59b-4ee6-a112-ffb02d227670,0,AddressPoint,Success,LOCATION_TYPE_STREET_ADDRESS,Meters,ArealInterpolation,0,ArealInterpolationGeometricCentroid,Parcel,100,FeatureClassBased,ReturnAll,,AddressPoint,,,0,37.7021636,-121.8097845,Exact
132,180 OTAY LAKES ROAD,BONITA,CA,91902,9114,http://www.phoenix.edu/,UNIVERSITY OF PHOENIX- BONITA LEARNING CENTER,619) 205-4440,133,USCGeocoder,89,1,4.1,,1679849f-c250-4311-a198-3a303c94d457,3,StreetSegmentInterpolation,Success,LOCATION_TYPE_STREET_ADDRESS,Meters,LinearInterpolation,1936.39360193163,LinearInterpolationAddressRange,StreetSegment,98.9940828402367,FeatureClassBased,ReturnAll,,AddressRangeInterpolation,,,0,32.6591764122519,-117.030476520407,Relaxed
133,"45 E. RIVER PARK PLACE WESTSUITE 201, SECOND FLOOR",FRESNO,CA,93720,8368,http://www.phoenix.edu/,UNIVERSITY OF PHOENIX - CENTRAL VALLEY CAMPUS,559) 312-1133,134,USCGeocoder,36,1,4.1,,2348ab66-2a79-4626-a33c-cf1e5213a8b9,0,AddressPoint,Success,LOCATION_TYPE_STREET_ADDRESS,Meters,ArealInterpolation,0,ArealInterpolationGeometricCentroid,Parcel,97.6331360946746,FeatureClassBased,ReturnAll,,AddressPoint,,,0,36.8587937,-119.7905101,Relaxed
134,"3150 BRISTOL STREET, SUITE 300",COSTA MESA,ME,92626,8240,http://www.phoenix.edu/,UNIVERSITY OF PHOENIX - COSTA MESA CAMPUS,800) 888-1968,135,USCGeocoder,149,1,4.1,,a7527073-fc2f-4f53-a332-d62e82fc9778,9,AddressZIPCentroid,Success,LOCATION_TYPE_STREET_ADDRESS,Meters,ArealInterpolation,0,ArealInterpolationGeometricCentroid,USPSZip,100,FeatureClassBased,ReturnAll,,USPSZipAreaCentroid,,,0,33.680139,-117.908452,Exact
135,3095 N. IMPERIAL AVENUE,EL CENTRO,CE,92243,9115,http://www.phoenix.edu/,UNIVERSITY OF PHOENIX - EL CENTRO LEARNING CENTER,760) 370-9020,136,USCGeocoder,146,1,4.1,,6a6a7f53-372a-4abf-b832-a9295a926e0b,9,AddressZIPCentroid,Success,LOCATION_TYPE_STREET_ADDRESS,Meters,ArealInterpolation,0,ArealInterpolationGeometricCentroid,USPSZip,100,FeatureClassBased,ReturnAll,,USPSZipAreaCentroid,,,0,32.784553,-115.571017,Exact
136,"5253 BUSINESS CENTER DR, STE B",FAIRFIELD,CA,94534,8747,http://www.phoenix.edu,UNIVERSITY OF PHOENIX - FAIRFIELD LEARNING CENTER,707) 639-4305,137,USCGeocoder,150,1,4.1,,370db358-6554-43fb-b94f-de8502b629c4,3,StreetSegmentInterpolation,Success,LOCATION_TYPE_STREET_ADDRESS,Meters,LinearInterpolation,1599.0590443993,LinearInterpolationAddressRange,StreetSegment,100,FeatureClassBased,ReturnAll,,AddressRangeInterpolation,,,0,38.2140199704782,-122.149206203232,Exact
137,6 CENTERPOINTE DRIVE SUITE 200,LA PALMA,PA,90623,9101,http://www.phoenix.edu/,UNIVERSITY OF PHOENIX - LA PALMA LEARNING CENTER,714) 735-5015,138,USCGeocoder,249,1,4.1,,5c9de550-c5af-4f05-97c6-5d798f5c4860,9,AddressZIPCentroid,Success,LOCATION_TYPE_STREET_ADDRESS,Meters,ArealInterpolation,0,ArealInterpolationGeometricCentroid,USPSZip,100,FeatureClassBased,ReturnAll,,USPSZipAreaCentroid,,,0,33.849063,-118.039814,Exact
138,"5330 PIRRONE ROAD, BUILDING B",SALIDA,CA,95368,7744,http://www.phoenix.edu/,UNIVERSITY OF PHOENIX - MODESTO LEARNING CENTER,209) 543-3425,139,USCGeocoder,112,1,4.1,,992b1c83-4161-4a21-b09d-dffae89a64c3,3,StreetSegmentInterpolation,Success,LOCATION_TYPE_STREET_ADDRESS,Meters,LinearInterpolation,5600.91880483553,LinearInterpolationAddressRange,StreetSegment,100,FeatureClassBased,ReturnAll,,AddressRangeInterpolation,,,0,37.7167478814385,-121.092166253144,Exact
139,"25240 HANCOCK AVE, SUITE 200",MURRIETA,CA,92562,8963,http://www.phoenix.edu/,UNIVERSITY OF PHOENIX - MURRIETA LEARNING CENTER,951) 691-5625,140,USCGeocoder,51,1,4.1,,cf8c912b-3ac4-4fef-947e-106508d302a5,0,AddressPoint,Success,LOCATION_TYPE_STREET_ADDRESS,Meters,ArealInterpolation,0,ArealInterpolationGeometricCentroid,Parcel,99.4674556213018,FeatureClassBased,ReturnAll,,AddressPoint,,,0,33.5613053,-117.1820816,Relaxed
140,3110 E. GUASTI ROAD,ONTARIO,CA,91761,8239,http://www.phoenix.edu/,UNIVERSITY OF PHOENIX - ONTARIO LEARNING CENTER,800) 888-1968,141,USCGeocoder,24,1,4.1,,b2fbde97-e7af-4864-b94f-8b6c89a9f05c,0,AddressPoint,Success,LOCATION_TYPE_STREET_ADDRESS,Meters,ArealInterpolation,0,ArealInterpolationGeometricCentroid,Parcel,95.3254437869822,FeatureClassBased,ReturnAll,,AddressPoint,,,0,34.0650563,-117.5832318,Relaxed
141,"2860 GATEWAY OAKS DRIVE, SUITE 100",SACRAMENTO,CA,95833,9975,http://www.phoenix.edu/,UNIVERSITY OF PHOENIX - SACRAMENTO VALLEY CAMPUS,916) 830-3809,142,USCGeocoder,133,1,4.1,,7491b75e-b446-43a4-bb89-f33e89c01fe6,2,Parcel,Success,LOCATION_TYPE_STREET_ADDRESS,Meters,ArealInterpolation,3841.40358293056,ArealInterpolationGeometricCentroid,Parcel,99.7485207100592,FeatureClassBased,ReturnAll,,ExactParcelCentroidPoint,,,0,38.62210901771,-121.519173791282,Relaxed
142,"451 E VANDERBILT WAY, SUITE 100",SAN BERNARDINO,BE,92408,8976,http://www.phoenix.edu/,UNIVERSITY OF PHOENIX - SAN BERNARDINO,909) 677-3009,143,USCGeocoder,31,1,4.1,,132fcfab-5b48-400d-bbf9-775517b28a26,0,AddressPoint,Success,LOCATION_TYPE_STREET_ADDRESS,Meters,ArealInterpolation,0,ArealInterpolationGeometricCentroid,Parcel,95.8579881656805,FeatureClassBased,ReturnAll,,AddressPoint,,,0,34.0682605,-117.2755366,Relaxed
143,300 RANCHEROS DRIVE,SAN MARCOS,MA,92069,9123,http://www.phoenix.edu/,UNIVERSITY OF PHOENIX - SAN MARCOS LEARNING CENTER,760) 304-7300,144,USCGeocoder,151,1,4.1,,84415f31-defb-4e4f-a5a8-d4db869f84dc,9,AddressZIPCentroid,Success,LOCATION_TYPE_STREET_ADDRESS,Meters,ArealInterpolation,0,ArealInterpolationGeometricCentroid,USPSZip,100,FeatureClassBased,ReturnAll,,USPSZipAreaCentroid,,,0,33.149519,-117.173018,Exact
144,"9645 GRANITE RIDGE DRIVE, STE 200",SAN DIEGO,DI,92123,8969,http://www.phoenix.edu/,UNIVERSITY OF PHOENIX - STONECREST LEARNING CENTER,858) 650-3800,145,USCGeocoder,48,1,4.1,,9f95996a-c02f-471d-b126-2f0b2dde11ef,0,AddressPoint,Success,LOCATION_TYPE_STREET_ADDRESS,Meters,ArealInterpolation,0,ArealInterpolationGeometricCentroid,Parcel,100,FeatureClassBased,ReturnAll,,AddressPoint,,,0,32.8054143,-117.1197053,Exact
145,301 EAST ACEQUIA AVENUE,VISALIA,CA,93291,9141,http://www.phoenix.edu/,UNIVERSITY OF PHOENIX - VISALIA LEARNING CENTER,559) 738-3320,146,USCGeocoder,113,1,4.1,,63afbcb9-3c3b-41d7-b0a9-f87d6a80cc7c,3,StreetSegmentInterpolation,Success,LOCATION_TYPE_STREET_ADDRESS,Meters,LinearInterpolation,4320.94870990887,LinearInterpolationAddressRange,StreetSegment,100,FeatureClassBased,ReturnAll,,AddressRangeInterpolation,,,0,36.3291690070056,-119.29004743505,Exact
146,"5955 DE SOTO AVE., SUITE 200",WOODLAND HILLS,HI,91367,9021,http://www.phoenix.edu/,UNIVERSITY OF PHOENIX - WOODLAND HILLS LEARNING CENTER,800) 888-1968,147,USCGeocoder,113,1,4.1,,cd595004-2c0b-4db7-9d36-43a18c34d2b7,9,AddressZIPCentroid,Success,LOCATION_TYPE_STREET_ADDRESS,Meters,ArealInterpolation,0,ArealInterpolationGeometricCentroid,USPSZip,100,FeatureClassBased,ReturnAll,,USPSZipAreaCentroid,,,0,34.178189,-118.623042,Exact
147,1409 N WALNUT GROVE AVE,ROSEMEAD,CA,91770,8490,http://www.uwest.edu/site/,UNIVERSITY OF THE WEST,626-571-8811,148,USCGeocoder,134,1,4.1,,2c417170-0cc3-49a2-a280-05e88957a282,3,StreetSegmentInterpolation,Success,LOCATION_TYPE_STREET_ADDRESS,Meters,LinearInterpolation,1964.55133048259,LinearInterpolationAddressRange,StreetSegment,97.9289940828402,FeatureClassBased,ReturnAll,,AddressRangeInterpolation,,,0,34.0445371517743,-118.081921664849,Relaxed
148,VICTORY UNIVERSITY - COAST GUARD CENTER,1001 S,SE,,7348,http://http://www.victory.edu/,VICTORY UNIVERSITY - COAST GUARD CENTER,"SAN PEDRO, CA   90731-0208",149,USCGeocoder,7,1,4.1,,e96a450f-52da-4a08-b376-4bbfd08f6bf2,99,Unmatchable,Unmatchable,LOCATION_TYPE_UNKNOWN,Unknown,NotAttempted,-1,NotAttempted,Unmatchable,0,FeatureClassBased,ReturnAll,,Unmatchable,,,0,0,0,
149,140 METHUSA AVE,EDWARDS AFB,AF,93524,7339,http://webster.edu/,WEBSTER UNIVERSITY,661-258-8501,150,USCGeocoder,97,1,4.1,,30ba6295-96ba-4c59-871d-64bd00110160,9,AddressZIPCentroid,Success,LOCATION_TYPE_STREET_ADDRESS,Meters,ArealInterpolation,0,ArealInterpolationGeometricCentroid,USPSZip,100,FeatureClassBased,ReturnAll,,USPSZipAreaCentroid,,,0,34.919545,-117.946773,Exact
150,"483 N. AVIATION BOULEVARD, BUILDING 272, ROOM C2-302",EL SEGUNDO,SE,90245,7227,http://www.webster.edu/laafb,WEBSTER UNIVERSITY,310-607-8006,151,USCGeocoder,101,1,4.1,,1fac5685-51f4-4a0d-aee9-97d1b2be1c98,3,StreetSegmentInterpolation,Success,LOCATION_TYPE_STREET_ADDRESS,Meters,LinearInterpolation,1076.40551979397,LinearInterpolationAddressRange,StreetSegment,100,FeatureClassBased,ReturnAll,,AddressRangeInterpolation,,,0,33.9203347762124,-118.378363,Exact
151,"1190 SARATOGA AVENUE, SUITE 210",SAN JOSE,JO,95129,9273,http://www.jessup.edu/,WILLIAM JESSUP UNIVERSITY - SAN JOSE CAMPUS,669) 400-7111,152,USCGeocoder,107,1,4.1,,fb0449a2-6eec-4265-a27e-9483d899c059,3,StreetSegmentInterpolation,Success,LOCATION_TYPE_STREET_ADDRESS,Meters,LinearInterpolation,2351.89528659033,LinearInterpolationAddressRange,StreetSegment,100,FeatureClassBased,ReturnAll,,AddressRangeInterpolation,,,0,37.3036424404157,-121.97939357545,Exact
152,17849 16TH STREET,BEALE AFB,AF,95903,7119,http://www.yccd.edu/,YUBA COLLEGE,530-788-0973,153,USCGeocoder,325,1,4.1,,72429efa-ce11-4f09-aafa-51aa74dba5f3,9,AddressZIPCentroid,Success,LOCATION_TYPE_STREET_ADDRESS,Meters,ArealInterpolation,0,ArealInterpolationGeometricCentroid,USPSZip,100,FeatureClassBased,ReturnAll,,USPSZipAreaCentroid,,,0,39.11058,-121.35792,Exact
153,2088 NORTH BEALE ROAD,MARYSVILLE,CA,95901,8083,http://www.yuba.cc.ca.us/,YUBA COMMUNITY COLLEGE DISTRICT,530-741-6700,154,USCGeocoder,31,1,4.1,,550bd33a-2083-41b1-8743-4bbd00c165fc,0,AddressPoint,Success,LOCATION_TYPE_STREET_ADDRESS,Meters,ArealInterpolation,0,ArealInterpolationGeometricCentroid,Parcel,97.3372781065089,FeatureClassBased,ReturnAll,,AddressPoint,,,0,39.1269129,-121.5404121,Relaxed
154,5050 EDISON AVENUE SUITE 122,COLORADO SPRINGS,SP,80915,8710,https://www.acuskill.com/,ACUSKILL,719) 232-0932,155,USCGeocoder,125,1,4.1,,21d9efd9-2eda-4eda-98a7-a568011b809d,3,StreetSegmentInterpolation,Success,LOCATION_TYPE_STREET_ADDRESS,Meters,LinearInterpolation,1833.80104829848,LinearInterpolationAddressRange,StreetSegment,100,FeatureClassBased,ReturnAll,,AddressRangeInterpolation,,,0,38.8399715425045,-104.734123459378,Exact
155,"5401 WEST 20TH ST, PO BOX 69",GREELEY,CO,80634,8826,http://www.aims.edu,AIMS COMMUNITY COLLEGE,970-339-6299,156,USCGeocoder,44,1,4.1,,39580a12-7b63-4ac7-84b5-ab5b0129b838,0,AddressPoint,Success,LOCATION_TYPE_STREET_ADDRESS,Meters,ArealInterpolation,0,ArealInterpolationGeometricCentroid,Parcel,95.8579881656805,FeatureClassBased,ReturnAll,,AddressPoint,,,0,40.410873,-104.7637417,Relaxed
156,104 EAST FOURTH STREET,LOVELAND,CO,80537,8125,http://www.aims.edu/,AIMS COMMUNITY COLLEGE,970-667-4611,157,USCGeocoder,38,1,4.1,,24847275-6bd8-437a-a5a5-05c5bc3d3914,0,AddressPoint,Success,LOCATION_TYPE_STREET_ADDRESS,Meters,ArealInterpolation,0,ArealInterpolationGeometricCentroid,Parcel,97.3372781065089,FeatureClassBased,ReturnAll,,AddressPoint,,,0,40.3951137,-105.075741,Relaxed;Soundex
157,260 COLLEGE AVENUE,FORT LUPTON,LU,80621,8484,http://www.aims.edu/,AIMS COMMUNITY COLLEGE,303-857-4022 X4303,158,USCGeocoder,33,1,4.1,,8c291e37-26a8-4275-84cf-1847407803ff,0,AddressPoint,Success,LOCATION_TYPE_STREET_ADDRESS,Meters,ArealInterpolation,0,ArealInterpolationGeometricCentroid,Parcel,100,FeatureClassBased,ReturnAll,,AddressPoint,,,0,40.083049,-104.7798162,Exact
158,5900 SOUTH SANTA FE DRIVE,LITTLETON,CO,9002,8797,http://www.arapahoe.edu/,ARAPAHOE COMMUNITY COLLEGE,303-797-5993,159,USCGeocoder,172,1,4.1,,8bfb5606-c939-4447-b410-e5862fae2e2d,9,AddressZIPCentroid,Success,LOCATION_TYPE_STREET_ADDRESS,Meters,ArealInterpolation,0,ArealInterpolationGeometricCentroid,USPSZip,100,FeatureClassBased,ReturnAll,,USPSZipAreaCentroid,,,0,0,0,Exact
159,"2452 PATTERSON ROAD, SUITE 200",GRAND JUNCTION,JU,81505,8687,http://www.ccu.edu/,COLORADO CHRISTIAN UNIVERSITY,970-242-1811,160,USCGeocoder,32,1,4.1,,e8a9ba90-1850-4053-980e-0d7d84eb2078,0,AddressPoint,Success,LOCATION_TYPE_STREET_ADDRESS,Meters,ArealInterpolation,0,ArealInterpolationGeometricCentroid,Parcel,100,FeatureClassBased,ReturnAll,,AddressPoint,,,0,39.0921549,-108.5984129,Exact
160,"1260 KENNEDY AVENUE, TESTING CENTER",GRAND JUNCTION,JU,81501,8062,http://www.coloradomesa.edu/,COLORADO MESA UNIVERSITY,970-255-2751,161,USCGeocoder,172,1,4.1,,f997c77b-efb8-4eb0-8081-63d9935f1db2,9,AddressZIPCentroid,Success,LOCATION_TYPE_STREET_ADDRESS,Meters,ArealInterpolation,0,ArealInterpolationGeometricCentroid,USPSZip,100,FeatureClassBased,ReturnAll,,USPSZipAreaCentroid,,,0,39.080461,-108.541256,Exact
161,500 KENNEDY DRIVE,RANGELY,CO,81648,7752,http://www.cncc.edu/,COLORADO NORTHWESTERN COMMUNITY COLLEGE,970) 675-3205,162,USCGeocoder,112,1,4.1,,7734e3fc-996f-43d3-9002-2df7d53563c9,2,Parcel,Success,LOCATION_TYPE_STREET_ADDRESS,Meters,ArealInterpolation,387702.309583664,ArealInterpolationGeometricCentroid,Parcel,100,FeatureClassBased,ReturnAll,,ExactParcelCentroidPoint,,,0,40.07816114524,-108.789613191959,Exact
162,"7450 CAMPUS DRIVE, SUITE 100",COLORADO SPRINGS,SP,80920,9878,http://www.regis.edu/about-regis-university/campus-locations/colorado-springs.aspx,COLORADO SPRINGS CAMPUS,303-458-4941,163,USCGeocoder,163,1,4.1,,d8d6655c-09c7-4f48-a23d-fd5b33ae2fb6,3,StreetSegmentInterpolation,Success,LOCATION_TYPE_STREET_ADDRESS,Meters,LinearInterpolation,16748.5661887457,LinearInterpolationAddressRange,StreetSegment,100,FeatureClassBased,ReturnAll,,AddressRangeInterpolation,,,0,38.9389622413584,-104.811128761462,Exact
163,16000 EAST CENTRETECH PARKWAY,AURORA,CO,80011,8825,http://www.ccaurora.edu/,COMMUNITY COLLEGE OF AURORA,303) 361-7431,164,USCGeocoder,33,1,4.1,,7884bbe4-3386-441e-8215-534dce26be6e,0,AddressPoint,Success,LOCATION_TYPE_STREET_ADDRESS,Meters,ArealInterpolation,0,ArealInterpolationGeometricCentroid,Parcel,100,FeatureClassBased,ReturnAll,,AddressPoint,,,0,39.7178887,-104.8027073,Exact
164,"18401 E. A BASIN, STOP 97",BUCKLEY AFB,AF,80011,7191,http://www.ccaurora.edu,COMMUNITY COLLEGE OF AURORA,303) 360-4948,165,USCGeocoder,241,1,4.1,,abfbf9d1-d6e4-47d4-9a6e-d2f5734a954a,9,AddressZIPCentroid,Success,LOCATION_TYPE_STREET_ADDRESS,Meters,ArealInterpolation,0,ArealInterpolationGeometricCentroid,USPSZip,100,FeatureClassBased,ReturnAll,,USPSZipAreaCentroid,,,0,39.74165,-104.791421,Exact
165,1201 5TH STREET,DENVER,CO,80204,8972,http://www.ccd.edu/testing/,COMMUNITY COLLEGE OF DENVER,303-556-2400,166,USCGeocoder,145,1,4.1,,a1110df8-85d3-4c64-8049-c1ca445bf076,3,StreetSegmentInterpolation,Success,LOCATION_TYPE_STREET_ADDRESS,Meters,LinearInterpolation,3227.93609754066,LinearInterpolationAddressRange,StreetSegment,100,FeatureClassBased,ReturnAll,,AddressRangeInterpolation,,,0,39.7424215952369,-105.010418057196,Exact
166,1765 U.S. HIGHWAY 50,DELTA,CO,81416,9482,http://www.dmavtc.tec.co.us/,DELTA MONTROSE AREA VOCATIONAL TECHNICAL CENTER,970-874-6565,167,USCGeocoder,126,1,4.1,,9bbf7f7d-f950-4f2c-bcee-d043a0fca45c,3,StreetSegmentInterpolation,Success,LOCATION_TYPE_STREET_ADDRESS,Meters,LinearInterpolation,19563.3653968488,LinearInterpolationAddressRange,StreetSegment,100,FeatureClassBased,ReturnAll,,AddressRangeInterpolation,,,0,38.704355017232,-108.037829814127,Exact
167,"6380 SOUTH FIDDLERS GREEN CIRCLE, SUITE 200",GREENWOOD,VI,80111,9877,http://www.regis.edu/about-regis-university/campus-locations/denver-tech-center.aspx,DENVER TECH CENTER CAMPUS,303-458-4941,168,USCGeocoder,21,1,4.1,,e6150ab4-b5b7-481f-a8c1-d50672877c75,9,AddressZIPCentroid,Success,LOCATION_TYPE_STREET_ADDRESS,Meters,ArealInterpolation,0,ArealInterpolationGeometricCentroid,USPSZip,100,FeatureClassBased,ReturnAll,,USPSZipAreaCentroid,,,0,39.612706,-104.883398,Exact
168,"1000 RIM DRIVE, NOBLE 287",DURANGO,CO,81301,9152,http://www.fortlewis.edu/,FORT LEWIS COLLEGE,970-382-6938,169,USCGeocoder,117,1,4.1,,95f5f5f2-1e70-4890-a955-be5e49f37fb8,3,StreetSegmentInterpolation,Success,LOCATION_TYPE_STREET_ADDRESS,Meters,LinearInterpolation,4370.67859066487,LinearInterpolationAddressRange,StreetSegment,100,FeatureClassBased,ReturnAll,,AddressRangeInterpolation,,,0,37.2749830211726,-107.872038760151,Exact
169,4616 SOUTH SHIELDS STREET,FORT COLLINS,CO,80526,7791,http://www.frontrange.edu/,FRONT RANGE COMMUNITY COLLEGE,970-204-8122,170,USCGeocoder,28,1,4.1,,1ee33737-2ba1-4412-93b8-2c8a24b0af7d,0,AddressPoint,Success,LOCATION_TYPE_STREET_ADDRESS,Meters,ArealInterpolation,0,ArealInterpolationGeometricCentroid,Parcel,100,FeatureClassBased,ReturnAll,,AddressPoint,,,0,40.5218382,-105.0932092,Exact
170,2190 MILLER DRIVE,LONGMONT,CO,80501,8364,http://www.frontrange.edu/,FRONT RANGE COMMUNITY COLLEGE,303-678-3722,171,USCGeocoder,111,1,4.1,,d30d6d67-d91b-4851-b06c-dd5b473a9aa3,2,Parcel,Success,LOCATION_TYPE_STREET_ADDRESS,Meters,ArealInterpolation,9644.16975879669,ArealInterpolationGeometricCentroid,Parcel,98.9940828402367,FeatureClassBased,ReturnAll,,ExactParcelCentroidPoint,,,0,40.1385364365517,-105.13010329059,Relaxed
171,3645 WEST 112TH AVENUE,WESTMINSTER,CO,80031,8003,http://www.frontrange.edu/,FRONT RANGE COMMUNITY COLLEGE - WESTMINSTER CAMPUS,303) 404-5301,172,USCGeocoder,112,1,4.1,,ae5aa1d3-4208-4d32-bdda-5e8e3dd6e000,2,Parcel,Success,LOCATION_TYPE_STREET_ADDRESS,Meters,ArealInterpolation,341804.606393628,ArealInterpolationGeometricCentroid,Parcel,98.9940828402367,FeatureClassBased,ReturnAll,,ExactParcelCentroidPoint,,,0,39.9017813693277,-105.039119662125,Relaxed
172,920 BARLOW ROAD,FORT MORGAN,MO,80701,8832,http://www.morgancc.edu/,MORGAN COMMUNITY COLLEGE,970-542-3188,173,USCGeocoder,150,1,4.1,,67e12e35-6b11-437a-ac4f-b97774d01377,9,AddressZIPCentroid,Success,LOCATION_TYPE_STREET_ADDRESS,Meters,ArealInterpolation,0,ArealInterpolationGeometricCentroid,USPSZip,100,FeatureClassBased,ReturnAll,,USPSZipAreaCentroid,,,0,40.256639,-103.806491,Exact
173,"1079 SPACE CENTER DRIVE, STE 140",COLORADO SPRINGS,SP,80915,8617,http://www.national.edu/,NATIONAL AMERICAN UNIVERSITY,719) 208-3800,174,USCGeocoder,196,1,4.1,,cbb73340-5236-4c53-9459-b73a1bdc77b9,3,StreetSegmentInterpolation,Success,LOCATION_TYPE_STREET_ADDRESS,Meters,LinearInterpolation,2100.54179149389,LinearInterpolationAddressRange,StreetSegment,100,FeatureClassBased,ReturnAll,,AddressRangeInterpolation,,,0,38.8459931450057,-104.723016741066,Exact
174,1915 JAMBOREE DRIVE,COLORADO SPRINGS,SP,80920,8137,http://www.national.edu,NATIONAL AMERICAN UNIVERSITY,719) 590-8300,175,USCGeocoder,130,1,4.1,,0bc4807e-8341-4ccc-ba02-14061fe81c65,3,StreetSegmentInterpolation,Success,LOCATION_TYPE_STREET_ADDRESS,Meters,LinearInterpolation,1447.87409354036,LinearInterpolationAddressRange,StreetSegment,100,FeatureClassBased,ReturnAll,,AddressRangeInterpolation,,,0,38.9525348055018,-104.791614345313,Exact
175,100 COLLEGE DR,STERLING,CO,80751,8769,http://www.njc.edu/,NORTHEASTERN JUNIOR COLLEGE,970-521-6657,176,USCGeocoder,160,1,4.1,,389c56f0-a2d9-455a-b53c-2d8707706229,3,StreetSegmentInterpolation,Success,LOCATION_TYPE_STREET_ADDRESS,Meters,LinearInterpolation,2339.78594108205,LinearInterpolationAddressRange,StreetSegment,100,FeatureClassBased,ReturnAll,,AddressRangeInterpolation,,,0,40.6379336288428,-103.19683415458,Exact
176,1903 SAN JUAN AVENUE STUDENT SERVICES - MCBRIDE HALL ROOM #132,LA JUNTA,JU,81050,9268,http://www.ojc.edu/,OTERO JUNIOR COLLEGE,719) 384-6948,177,USCGeocoder,136,1,4.1,,6ac58447-d35e-4ca3-b050-1b13684ffa15,3,StreetSegmentInterpolation,Success,LOCATION_TYPE_STREET_ADDRESS,Meters,LinearInterpolation,3597.30139967788,LinearInterpolationAddressRange,StreetSegment,100,FeatureClassBased,ReturnAll,,AddressRangeInterpolation,,,0,37.9710961805277,-103.546308815051,Exact
177,EDUCATION CENTER,PAFB,CO,80914,7145,http://www.ppcc.edu/,PIKES PEAK COMMUNITY COLLEGE,719-502-4300,178,USCGeocoder,5,1,4.1,,8a9b9cf4-43bd-4fe0-9d4c-206314977470,10,POBoxZIPCentroid,Success,LOCATION_TYPE_STREET_ADDRESS,Meters,ArealInterpolation,0,ArealInterpolationGeometricCentroid,USPSZip,100,FeatureClassBased,ReturnAll,,USPSZipAreaCentroid,,,0,38.786821,-104.714138,Exact
178,"5675 SOUTH ACADEMY BLVD, TESTING CENTER C 36",COLORADO SPRINGS,SP,80906,9279,http://www.ppcc.edu/,PIKES PEAK COMMUNITY COLLEGE,719) 502-3370,179,USCGeocoder,192,1,4.1,,629be2e3-93c3-47c1-9ef7-33800dafdea0,9,AddressZIPCentroid,Success,LOCATION_TYPE_STREET_ADDRESS,Meters,ArealInterpolation,0,ArealInterpolationGeometricCentroid,USPSZip,100,FeatureClassBased,ReturnAll,,USPSZipAreaCentroid,,,0,38.791623,-104.825814,Exact
179,EDUCATION CENTER,FORT CARSON,CA,80913,7146,http://www.ppcc.edu/,PIKES PEAK COMMUNITY COLLEGE,719-502-4200,180,USCGeocoder,5,1,4.1,,f3ed8efc-4196-4ae9-9d54-3302c0406e39,9,AddressZIPCentroid,Success,LOCATION_TYPE_STREET_ADDRESS,Meters,ArealInterpolation,0,ArealInterpolationGeometricCentroid,USPSZip,100,FeatureClassBased,ReturnAll,,USPSZipAreaCentroid,,,0,38.609596,-104.809735,Exact
180,EDUCATION SERVICES,USAFA,CO,80840,7144,http://www.ppcc.edu/,PIKES PEAK COMMUNITY COLLEGE,719-333-2898,181,USCGeocoder,5,1,4.1,,cfa15477-038f-4041-a11e-35291eb8b4bf,9,AddressZIPCentroid,Success,LOCATION_TYPE_STREET_ADDRESS,Meters,ArealInterpolation,0,ArealInterpolationGeometricCentroid,USPSZip,100,FeatureClassBased,ReturnAll,,USPSZipAreaCentroid,,,0,38.999759,-104.695596,Exact
181,"900 WEST ORMAN AVENUE, ACADEMIC BUILDING 150",PUEBLO,CO,81004,8599,http://www.pueblocc.edu/,PUEBLO COMMUNITY COLLEGE,719-549-3382,182,USCGeocoder,27,1,4.1,,ac8ff7ee-056f-4726-84cd-0778181490ea,0,AddressPoint,Success,LOCATION_TYPE_STREET_ADDRESS,Meters,ArealInterpolation,0,ArealInterpolationGeometricCentroid,Parcel,100,FeatureClassBased,ReturnAll,,AddressPoint,,,0,38.2623035,-104.6375293,Exact
182,13300 W. 6TH AVE.,LAKEWOOD,CO,80228,7979,http://www.rrcc.edu//,RED ROCKS COMMUNITY COLLEGE,303 914 6720,183,USCGeocoder,136,1,4.1,,fb1d97c3-12c6-4470-ab85-b3d0f5a1bdd2,2,Parcel,Success,LOCATION_TYPE_STREET_ADDRESS,Meters,ArealInterpolation,32520.5548476911,ArealInterpolationGeometricCentroid,Parcel,98.9940828402367,FeatureClassBased,ReturnAll,,ExactParcelCentroidPoint,,,0,39.7214768165255,-105.1537856341,Relaxed
183,REGISTER VIA BELOW WEBSITE3333 REGIS BLVD CLARKE HALL STE 241,DENVER,CO,80221,9938,http://regis.edu/testing,REGIS UNIVERSITY-FLAGSHIP CAMPUS,303) 458-4375,184,USCGeocoder,6,1,4.1,,b78bb2ef-7ba8-47df-a24d-ea5b100283b1,9,AddressZIPCentroid,Success,LOCATION_TYPE_STREET_ADDRESS,Meters,ArealInterpolation,0,ArealInterpolationGeometricCentroid,USPSZip,100,FeatureClassBased,ReturnAll,,USPSZipAreaCentroid,,,0,39.83442,-105.00954,Exact
184,10004 PARK MEADOWS DRIVE,LONE TREE,TR,80124,8183,http://phoenix.edu,UNIVERSITY OF PHOENIX - COLORADO CAMPUS,303) 600-1178,185,USCGeocoder,32,1,4.1,,46f996f9-0d78-46d1-8cd3-c0780bbbc90e,0,AddressPoint,Success,LOCATION_TYPE_STREET_ADDRESS,Meters,ArealInterpolation,0,ArealInterpolationGeometricCentroid,Parcel,100,FeatureClassBased,ReturnAll,,AddressPoint,,,0,39.5516168,-104.8733062,Exact
185,"2 NORTH CASCADE AVENUE, SUITE 100",COLORADO SPRINGS,SP,80903,9137,http://www.phoenix.edu/,UNIVERSITY OF PHOENIX - COLORADO SPRINGS DOWNTOWN,719) 235-4058,186,USCGeocoder,117,1,4.1,,ed4ebedf-538e-4d77-813c-550832c3bc66,3,StreetSegmentInterpolation,Success,LOCATION_TYPE_STREET_ADDRESS,Meters,LinearInterpolation,2038.43869635265,LinearInterpolationAddressRange,StreetSegment,100,FeatureClassBased,ReturnAll,,AddressRangeInterpolation,,,0,38.8346012456617,-104.825267867036,Exact
186,85 ALUMNI ROAD,NEWINGTON,CT,6111,9928,http://www.cosc.edu/,CHARTER OAK STATE COLLEGE - TESTING CENTER,860) 515-3708,187,USCGeocoder,27,1,4.1,,b097c0a6-2668-434e-b29e-f88b537f2b02,0,AddressPoint,Success,LOCATION_TYPE_STREET_ADDRESS,Meters,ArealInterpolation,0,ArealInterpolationGeometricCentroid,Parcel,100,FeatureClassBased,ReturnAll,,AddressPoint,,,0,41.6980216,-72.7475411,Exact
187,591 POQUONNOUCK ROAD,GROTON,CT,6340,9533,http://www.easternnct.edu/,EASTERN CONNECTICUT STATE UNIVERSITY,860-446-9457,188,USCGeocoder,26,1,4.1,,d51f7d79-7c59-41a9-951c-786db7e36238,0,AddressPoint,Success,LOCATION_TYPE_STREET_ADDRESS,Meters,ArealInterpolation,0,ArealInterpolationGeometricCentroid,Parcel,97.5793437331899,FeatureClassBased,ReturnAll,,AddressPoint,,,0,41.341433,-72.0593439,Relaxed;Soundex
188,900 LAFAYETTE BLVD,BRIDGEPORT,CT,4704,9454,http://www.hctc.commnet.edu/,HOUSATONIC COMMUNITY TECHNICAL COLLEGE,203-332-5217,189,USCGeocoder,24,1,4.1,,387bbee2-df5c-4644-9413-371b9772571c,0,AddressPoint,Success,LOCATION_TYPE_STREET_ADDRESS,Meters,ArealInterpolation,0,ArealInterpolationGeometricCentroid,Parcel,91.9526627218935,FeatureClassBased,ReturnAll,,AddressPoint,,,0,41.1746233,-73.1904572,Relaxed
189,"30 HAZEL TER, SUITE 4",WOODBRIDGE,CT,6525,8618,http://www.metrotestingct.com/,METRO TESTING SERVICE,203) 672-5758,190,USCGeocoder,134,1,4.1,,e69b7380-7f21-460e-a18b-e07b985672a0,3,StreetSegmentInterpolation,Success,LOCATION_TYPE_STREET_ADDRESS,Meters,LinearInterpolation,6467.16768428835,LinearInterpolationAddressRange,StreetSegment,100,FeatureClassBased,ReturnAll,,AddressRangeInterpolation,,,0,41.3387383977247,-72.9826715236262,Exact
190,"110 LENOX AVE, SUITE 102",STAMFORD,CT,6906,9338,http://www.metrotestingct.com/stamford1.html,METRO TESTING SERVICE- STAMFORD,203) 658-3702,191,USCGeocoder,28,1,4.1,,b6f7d173-450a-42bd-a16c-f2a572d21f9d,0,AddressPoint,Success,LOCATION_TYPE_STREET_ADDRESS,Meters,ArealInterpolation,0,ArealInterpolationGeometricCentroid,Parcel,100,FeatureClassBased,ReturnAll,,AddressPoint,,,0,41.0692309,-73.5107544,Exact
191,"99 PRATT STREET, SUITE 209",HARTFORD,CT,6103,8416,http://www.patricksacademy.com/,PATRICK\\'S ACADEMY,866-920-0769,192,USCGeocoder,28,1,4.1,,c164a13a-5c4e-4768-8a46-2c152c14a4d3,0,AddressPoint,Success,LOCATION_TYPE_STREET_ADDRESS,Meters,ArealInterpolation,0,ArealInterpolationGeometricCentroid,Parcel,97.3372781065089,FeatureClassBased,ReturnAll,,AddressPoint,,,0,41.767643,-72.6750845,Relaxed
192,742 UPPER MAPLE STREET,DANIELSON,CT,6239,9605,http://www.qvcc.commnet.edu/,QUINEBAUG VALLEY COMMUNITY COLLEGE,860- 932- 4055,193,USCGeocoder,172,1,4.1,,150751fe-1a12-48ef-b3a2-b0a7b979be91,3,StreetSegmentInterpolation,Success,LOCATION_TYPE_STREET_ADDRESS,Meters,LinearInterpolation,5789.80479045887,LinearInterpolationAddressRange,StreetSegment,98.9940828402367,FeatureClassBased,ReturnAll,,AddressRangeInterpolation,,,0,41.8258910008788,-71.893803864943,Relaxed
193,5151 PARK AVE,FAIRFIELD,CT,6825,8380,http://www.sacredheart.edu/,SACRED HEART UNIVERSITY,203-323-4959,194,USCGeocoder,54,1,4.1,,a1d00dd4-a449-4b0a-bf86-b6938d300a9a,0,AddressPoint,Success,LOCATION_TYPE_STREET_ADDRESS,Meters,ArealInterpolation,0,ArealInterpolationGeometricCentroid,Parcel,97.3372781065089,FeatureClassBased,ReturnAll,,AddressPoint,,,0,41.2204471,-73.242685,Relaxed
194,574 NEW LONDON TURNPIKE,NORWICH,CT,6360,9233,http://www.trctc.commnet.edu/,THREE RIVERS COMMUNITY TECHNICAL COLLEGE,860) 215-9061,195,USCGeocoder,78,1,4.1,,d00a0d44-7f00-403f-87a2-2ef2b1bc212d,2,Parcel,Success,LOCATION_TYPE_STREET_ADDRESS,Meters,ArealInterpolation,246920.535378218,ArealInterpolationGeometricCentroid,Parcel,97.3372781065089,FeatureClassBased,ReturnAll,,ExactParcelCentroidPoint,,,0,41.5093334092288,-72.0984231063022,Relaxed;Soundex
195,1133 15TH STREET NW,WASHINGTON,DC,20005,8351,http://www.strayer.edu/,STRAYER UNIVERSITY,202) 419-0485,196,USCGeocoder,22,1,4.1,,cbc65eff-e138-4b1d-bfa1-0e9a7806f1cb,0,AddressPoint,Success,LOCATION_TYPE_STREET_ADDRESS,Meters,ArealInterpolation,0,ArealInterpolationGeometricCentroid,Parcel,100,FeatureClassBased,ReturnAll,,AddressPoint,,,0,38.9048614,-77.0340238,Exact
196,"6830 LAUREL STREET, NW",WASHINGTON,DC,20012,9725,http://www.strayer.edu/,STRAYER UNIVERSITY,202-722-8118,197,USCGeocoder,28,1,4.1,,f9d8c7cd-7755-48fa-9ee4-259c30014415,0,AddressPoint,Success,LOCATION_TYPE_STREET_ADDRESS,Meters,ArealInterpolation,0,ArealInterpolationGeometricCentroid,Parcel,100,FeatureClassBased,ReturnAll,,AddressPoint,,,0,38.973203,-77.01386,Exact
197,112 BROOKLEY AVENUE,WASHINGTON,DC,20023,7180,http://www.umuc.edu/,UMUC NATIONAL TESTING CENTER - JOINT BASE ANACOSTIA-BOLLING,301) 887-7183,198,USCGeocoder,29,1,4.1,,6c2ec92b-e77c-4e78-9923-3d1730ea360b,0,AddressPoint,Success,LOCATION_TYPE_STREET_ADDRESS,Meters,ArealInterpolation,0,ArealInterpolationGeometricCentroid,Parcel,96.5680473372781,FeatureClassBased,ReturnAll,,AddressPoint,,,0,38.8439924,-77.0112459,Relaxed
198,25 MASSACHUSETTS AVENUE,WASHINGTON,DC,20001,8956,http://phoenix.edu,UNIVERSITY OF PHOENIX - WASHINGTON DC CAMPUS,571) 227-7083,199,USCGeocoder,29,1,4.1,,7097b560-608a-4987-9b4e-18410265fc21,0,AddressPoint,Success,LOCATION_TYPE_STREET_ADDRESS,Meters,ArealInterpolation,0,ArealInterpolationGeometricCentroid,Parcel,97.6331360946746,FeatureClassBased,ReturnAll,,AddressPoint,,,0,38.8984654,-77.0104167,Relaxed
199,"DOVER, DE   19901-2277",302,,6143,9464,http://www.desu.edu/,DELAWARE STATE UNIVERSITY,302-857-SNOW (WEATHER LINE),200,USCGeocoder,5,1,4.1,,35ebec36-7891-4eae-8dac-c796da2551a2,10,POBoxZIPCentroid,Success,LOCATION_TYPE_STREET_ADDRESS,Meters,ArealInterpolation,0,ArealInterpolationGeometricCentroid,USPSZip,100,FeatureClassBased,ReturnAll,,USPSZipAreaCentroid,,,0,41.790844,-72.66892,Exact
200,"1007 ORANGE STREET, SUITE 500",WILMINGTON,DE,19801,8594,http://www.springfieldcollege.edu/,SPRINGFIELD COLLEGE,302-658-5720 X214,201,USCGeocoder,26,1,4.1,,d05ef146-dbc5-4145-bdf5-df3c1571332f,0,AddressPoint,Success,LOCATION_TYPE_STREET_ADDRESS,Meters,ArealInterpolation,0,ArealInterpolationGeometricCentroid,Parcel,95.8579881656805,FeatureClassBased,ReturnAll,,AddressPoint,,,0,39.7468383,-75.5492704,Relaxed
201,"240 CONTINENTAL DRIVE, SUITE 108",NEWARK,DE,19713,9730,http://www.strayer.edu/,STRAYER UNIVERSITY,302-292-6129,202,USCGeocoder,29,1,4.1,,cc148c66-6dae-4cb0-97e0-21dd569c10e9,0,AddressPoint,Success,LOCATION_TYPE_STREET_ADDRESS,Meters,ArealInterpolation,0,ArealInterpolationGeometricCentroid,Parcel,100,FeatureClassBased,ReturnAll,,AddressPoint,,,0,39.6862056,-75.6599269,Exact
202,"436 FSS/FSDE, 261 CHAD STREET, ROOM 301",DOVER,DE,19902,7121,http://www.wilmu.edu/,WILMINGTON UNIVERSITY,302-674-8726,203,USCGeocoder,198,1,4.1,,d0d84404-c2ed-4c02-b2d8-c2e0ffd282ac,9,AddressZIPCentroid,Success,LOCATION_TYPE_STREET_ADDRESS,Meters,ArealInterpolation,0,ArealInterpolationGeometricCentroid,USPSZip,100,FeatureClassBased,ReturnAll,,USPSZipAreaCentroid,,,0,39.120867,-75.478601,Exact
203,5250 17TH STREET,SARASOTA,FL,34235,8212,http://www.argosyu.edu/,ARGOSY UNIVERSITY,941-379-0404,204,USCGeocoder,203,1,4.1,,11b169de-bea3-4d14-8b07-125b27957ba6,0,AddressPoint,Success,LOCATION_TYPE_STREET_ADDRESS,Meters,ArealInterpolation,0,ArealInterpolationGeometricCentroid,Parcel,100,FeatureClassBased,ReturnAll,,AddressPoint,,,0,27.351228,-82.4650343,Exact
204,1403 N. HOWARD AVENUE,TAMPA,FL,33607,9042,http://www.argosyu.edu/,ARGOSY UNIVERSITY,813-463-7165,205,USCGeocoder,95,1,4.1,,4ee962f6-2367-4789-9531-b7796c8a37b3,2,Parcel,Success,LOCATION_TYPE_STREET_ADDRESS,Meters,ArealInterpolation,2659.83565132041,ArealInterpolationGeometricCentroid,Parcel,100,FeatureClassBased,ReturnAll,,ExactParcelCentroidPoint,,,0,27.9551977081263,-82.4823803692064,Exact
205,"5200 VINELINE ROAD, STE 100",ORLANDO,FL,32811,9685,http://www.belhaven.edu,BELHAVEN COLLEGE,407) 379-0114,206,USCGeocoder,41,1,4.1,,c435612f-afe9-4af4-948d-0a2792a3b764,0,AddressPoint,Success,LOCATION_TYPE_STREET_ADDRESS,Meters,ArealInterpolation,0,ArealInterpolationGeometricCentroid,Parcel,93.3431952662722,FeatureClassBased,ReturnAll,,AddressPoint,,,0,28.4876978,-81.4417237,Relaxed;Soundex
206,3800 S. LECANTO HIGHWAY,LECANTO,FL,9026,7712,http://www.cf.edu/,CENTRAL FLORIDA COMMUNITY COLLEGE,352-249-1213,207,USCGeocoder,32,1,4.1,,bc70bef7-e81e-4ce7-b429-de7ab6a5d686,0,AddressPoint,Success,LOCATION_TYPE_STREET_ADDRESS,Meters,ArealInterpolation,0,ArealInterpolationGeometricCentroid,Parcel,97.3372781065089,FeatureClassBased,ReturnAll,,AddressPoint,,,0,28.8087503,-82.4893422,Relaxed
207,"3001 SW COLLEGE ROAD, BUILDING #5, 205 H",OCALA,FL,34474,8717,http://www.cf.edu/,CENTRAL FLORIDA COMMUNITY COLLEGE,352) 854-2322 EX. 1332,208,USCGeocoder,92,1,4.1,,a5f8e62a-650d-40fe-8abd-37c02765bf02,2,Parcel,Success,LOCATION_TYPE_STREET_ADDRESS,Meters,ArealInterpolation,545091.062744512,ArealInterpolationGeometricCentroid,Parcel,100,FeatureClassBased,ReturnAll,,ExactParcelCentroidPoint,,,0,29.1656994198403,-82.1780327628031,Exact
208,"250 CHAMBERS AVENUE, BUILDING 634, SUITE 023",NAS PENSACOLA,PE,32508,7217,http://military.coastline.edu/,COASTLINE COMMUNITY COLLEGE,850-455-9577,209,USCGeocoder,164,1,4.1,,dbb1fe82-9fb7-440a-9077-f5d36b52edaa,9,AddressZIPCentroid,Success,LOCATION_TYPE_STREET_ADDRESS,Meters,ArealInterpolation,0,ArealInterpolationGeometricCentroid,USPSZip,100,FeatureClassBased,ReturnAll,,USPSZipAreaCentroid,,,0,30.353315,-87.276065,Exact
209,"2600 TECHNOLOGY DRIVE, SUITE 100",ORLANDO,FL,32804,9819,http://www.ccis.edu/nationwide/orlando/,COLUMBIA COLLEGE,407-293-9911,210,USCGeocoder,28,1,4.1,,1bb4fda8-8624-489e-a15b-4a11ed3bded2,0,AddressPoint,Success,LOCATION_TYPE_STREET_ADDRESS,Meters,ArealInterpolation,0,ArealInterpolationGeometricCentroid,Parcel,100,FeatureClassBased,ReturnAll,,AddressPoint,,,0,28.5552878,-81.412687,Exact
210,"1020 CENTRAL AVENUE, E-1",PATRICK AIR FORCE BASE,AI,32925,7128,http://www.ccis.edu/nationwide/pafb/,COLUMBIA COLLEGE,321-783-5506,211,USCGeocoder,264,1,4.1,,8dc4abd0-cfe4-4f85-9646-a44ab255acbc,9,AddressZIPCentroid,Success,LOCATION_TYPE_STREET_ADDRESS,Meters,ArealInterpolation,0,ArealInterpolationGeometricCentroid,USPSZip,100,FeatureClassBased,ReturnAll,,USPSZipAreaCentroid,,,0,28.229987,-80.623528,Exact
211,3865 NORTH WICKHAM ROAD (10-218),MELBOURNE,FL,32935,8816,http://www.easternflorida.edu,EASTERN FLORIDA STATE COLLEGE,321) 433-5876,212,USCGeocoder,30,1,4.1,,3e1706f0-6c7e-426f-8501-506566427f74,0,AddressPoint,Success,LOCATION_TYPE_STREET_ADDRESS,Meters,ArealInterpolation,0,ArealInterpolationGeometricCentroid,Parcel,99.3491124260355,FeatureClassBased,ReturnAll,,AddressPoint,,,0,28.1687926,-80.6684165,Relaxed
212,"SPECIAL PROGRAMS DIVISION, 4200 54TH AVENUE SOUTH",ST PETERSBURG,PE,33711,9551,http://www.eckerd.edu/,ECKERD COLLEGE,727) 864-8366,213,USCGeocoder,6,1,4.1,,e0759c6c-48e3-4d04-b842-ab0577fdd486,9,AddressZIPCentroid,Success,LOCATION_TYPE_STREET_ADDRESS,Meters,ArealInterpolation,0,ArealInterpolationGeometricCentroid,USPSZip,100,FeatureClassBased,ReturnAll,,USPSZipAreaCentroid,,,0,27.751284,-82.687336,Exact
213,110 SUNSHINE MANOR,TALLAHASSEE,FL,32307,9099,http://www.famu.edu/,FLORIDA A &AMP; M UNIVERSITY,850-599-3333,214,USCGeocoder,155,1,4.1,,ef68caf6-f5ec-4bf1-bf5f-4b2edcb00f20,9,AddressZIPCentroid,Success,LOCATION_TYPE_STREET_ADDRESS,Meters,ArealInterpolation,0,ArealInterpolationGeometricCentroid,USPSZip,100,FeatureClassBased,ReturnAll,,USPSZipAreaCentroid,,,0,30.431483,-84.288359,Exact
214,777 GLADES ROAD,BOCA RATON,RA,33431,7726,http://www.fau.edu/,FLORIDA ATLANTIC UNIVERSITY,561) 297-3160,215,USCGeocoder,30,1,4.1,,d441c5e6-c3a8-49fd-99d2-5136ab62ebcf,0,AddressPoint,Success,LOCATION_TYPE_STREET_ADDRESS,Meters,ArealInterpolation,0,ArealInterpolationGeometricCentroid,Parcel,100,FeatureClassBased,ReturnAll,,AddressPoint,,,0,26.3694333,-80.1022866,Exact
215,"10501 FGCU BLVD SOUTH, MCTARNAGHAN HALL, ROOM 204",FORT MYERS,MY,33965,9713,http://studentservices.fgcu.edu/testing,FLORIDA GULF COAST UNIVERSITY,239-590-7955,216,USCGeocoder,31,1,4.1,,b2228804-8073-4ce9-bb99-38b7eea09c2e,0,AddressPoint,Success,LOCATION_TYPE_STREET_ADDRESS,Meters,ArealInterpolation,0,ArealInterpolationGeometricCentroid,Parcel,100,FeatureClassBased,ReturnAll,,AddressPoint,,,0,26.4641912,-81.7730159,Exact
216,11200 SW 8TH ST,MIAMI,FL,33199,8000,https://testing.fiu.edu,FLORIDA INTERNATIONAL UNIVERSITY,305) 348-2116,217,USCGeocoder,226,1,4.1,,5c7f1130-bad3-4b93-a58f-332d8df77840,3,StreetSegmentInterpolation,Success,LOCATION_TYPE_STREET_ADDRESS,Meters,LinearInterpolation,4682.51463221351,LinearInterpolationAddressRange,StreetSegment,98.9940828402367,FeatureClassBased,ReturnAll,,AddressRangeInterpolation,,,0,25.7610546584462,-80.3761954941713,Relaxed
217,3000 N.E. 151ST STREET,NORTH MIAMI,MI,33181,9463,http://testing.fiu.edu,FLORIDA INTERNATIONAL UNIVERSITY (BISCAYNE BAY CAMPUS),305) 919-4043,218,USCGeocoder,402,1,4.1,,8abf11aa-4fac-4d52-8ae7-3c92cac609e3,9,AddressZIPCentroid,Success,LOCATION_TYPE_STREET_ADDRESS,Meters,ArealInterpolation,0,ArealInterpolationGeometricCentroid,USPSZip,100,FeatureClassBased,ReturnAll,,USPSZipAreaCentroid,,,0,25.902791,-80.15129,Exact
218,5901 COLLEGE ROAD,KEY WEST,WE,33040,8524,http://www.fkcc.edu/,FLORIDA KEYS COMMUNITY COLLEGE,305-809-3250 X250,219,USCGeocoder,63,1,4.1,,ae9eb929-291b-48a2-84e0-3822cb324c36,2,Parcel,Success,LOCATION_TYPE_STREET_ADDRESS,Meters,ArealInterpolation,473611.845477343,ArealInterpolationGeometricCentroid,Parcel,98.9940828402367,FeatureClassBased,ReturnAll,,ExactParcelCentroidPoint,,,0,24.5861494079817,-81.747780245303,Relaxed
219,15800 NW 42ND AVE,MIAMI GARDENS,GA,33054,7793,http://www.fmuniv.edu//,FLORIDA MEMORIAL UNIVERSITY,305-626-3600,220,USCGeocoder,290,1,4.1,,86509136-938c-43eb-b5fa-9710913d7252,9,AddressZIPCentroid,Success,LOCATION_TYPE_STREET_ADDRESS,Meters,ArealInterpolation,0,ArealInterpolationGeometricCentroid,USPSZip,100,FeatureClassBased,ReturnAll,,USPSZipAreaCentroid,,,0,25.90529,-80.25716,Exact
220,111 LAKE HOLLINGSWORTH DRIVE,LAKELAND,FL,5698,9466,http://www.flsouthern.edu/,FLORIDA SOUTHERN COLLEGE,863-680-4299,221,USCGeocoder,36,1,4.1,,28c6e66c-90d8-4db6-a8f0-c8b88c8c1736,0,AddressPoint,Success,LOCATION_TYPE_STREET_ADDRESS,Meters,ArealInterpolation,0,ArealInterpolationGeometricCentroid,Parcel,97.3372781065089,FeatureClassBased,ReturnAll,,AddressPoint,,,0,28.0304608,-81.9441528,Relaxed
221,5640 NEW WORLD AVE,JACKSONVILLE,FL,32221,7711,http://www.fscj.edu/mydegree/campuses/cecil-center/,FLORIDA STATE COLLEGE AT JACKSONVILLE - CECIL CENTER,904-779-4129,222,USCGeocoder,28,1,4.1,,f24efad1-70e7-456b-896f-569fcbff5668,0,AddressPoint,Success,LOCATION_TYPE_STREET_ADDRESS,Meters,ArealInterpolation,0,ArealInterpolationGeometricCentroid,Parcel,100,FeatureClassBased,ReturnAll,,AddressPoint,,,0,30.2502191,-81.8907353,Exact
222,9911 OLD BAYMEADOWS RD,JACKSONVILLE,FL,32256,8554,http://www.fscj.edu/mydegree/campuses/deerwood-center/,FLORIDA STATE COLLEGE AT JACKSONVILLE - DEERWOOD CAMPUS,904) 997-2619,223,USCGeocoder,126,1,4.1,,815a76ce-347f-4216-bbdc-f403777d72f9,2,Parcel,Success,LOCATION_TYPE_STREET_ADDRESS,Meters,ArealInterpolation,16298.1952302828,ArealInterpolationGeometricCentroid,Parcel,98.9940828402367,FeatureClassBased,ReturnAll,,ExactParcelCentroidPoint,,,0,30.2215015836379,-81.5530570515374,Relaxed
223,101 WEST STATE ST. ROOM 1021,JACKSONVILLE,FL,32202,9683,http://www.fscj.edu/,FLORIDA STATE COLLEGE- DOWNTOWN,904-632-5077,224,USCGeocoder,33,1,4.1,,d323b81f-18dc-47b4-9cf1-08b733936b6e,0,AddressPoint,Success,LOCATION_TYPE_STREET_ADDRESS,Meters,ArealInterpolation,0,ArealInterpolationGeometricCentroid,Parcel,99.3491124260355,FeatureClassBased,ReturnAll,,AddressPoint,,,0,30.3348134,-81.6589211,Relaxed
224,"KENT CAMPUS, 3939 ROOSEVELT, BLDG A, RM 104",JACKSONVILLE,FL,32205,8621,http://www.fccj.org/,FLORIDA STATE COLLEGE- KENT CAMPUS,904-381-3705,225,USCGeocoder,5,1,4.1,,5bc184f4-d553-480f-8e05-7ffe1cad0819,9,AddressZIPCentroid,Success,LOCATION_TYPE_STREET_ADDRESS,Meters,ArealInterpolation,0,ArealInterpolationGeometricCentroid,USPSZip,100,FeatureClassBased,ReturnAll,,USPSZipAreaCentroid,,,0,30.30316,-81.726849,Exact
225,"BLDG 110, ROOM 16, YORKTOWN AVENUE",JACKSONVILLE,FL,32212,7102,http://www.fscj.edu/,FLORIDA STATE COLLEGE- NAS JAX,904-632-5009,226,USCGeocoder,5,1,4.1,,3e64a531-83b8-475d-b39f-53f5ba97c7fe,9,AddressZIPCentroid,Success,LOCATION_TYPE_STREET_ADDRESS,Meters,ArealInterpolation,0,ArealInterpolationGeometricCentroid,USPSZip,100,FeatureClassBased,ReturnAll,,USPSZipAreaCentroid,,,0,30.209823,-81.688591,Exact
226,"JACKSONVILLE CAMPUS, 4501 CAPPER ROAD",JACKSONVILLE,FL,32218,9682,http://www.fscj.edu/,FLORIDA STATE COLLEGE- NORTH CAMPUS,904-766-6708,227,USCGeocoder,6,1,4.1,,4ca123cc-433f-4ebd-9714-074c6be29e4e,9,AddressZIPCentroid,Success,LOCATION_TYPE_STREET_ADDRESS,Meters,ArealInterpolation,0,ArealInterpolationGeometricCentroid,USPSZip,100,FeatureClassBased,ReturnAll,,USPSZipAreaCentroid,,,0,30.461492,-81.625786,Exact
227,"460 MASSEY AVENUE, BLDG #460",MAYPORT,FL,32228,7104,http://www.fscj.edu/,FLORIDA STATE COLLEGE - NS MAYPORT,904.632.5009,228,USCGeocoder,157,1,4.1,,99846955-e752-4e79-9378-5283e904496c,10,POBoxZIPCentroid,Success,LOCATION_TYPE_STREET_ADDRESS,Meters,ArealInterpolation,0,ArealInterpolationGeometricCentroid,USPSZip,100,FeatureClassBased,ReturnAll,,USPSZipAreaCentroid,,,0,30.388853,-81.433191,Exact
228,"11901 BEACH BOULEVARD, BUILDING U, ROOM 120",JACKSONVILLE,FL,32246,9681,http://www.fscj.edu/,FLORIDA STATE COLLEGE- SOUTH CAMPUS,904-646-2040,229,USCGeocoder,43,1,4.1,,750d5eee-01f5-4e23-886a-1aaefebd0f92,0,AddressPoint,Success,LOCATION_TYPE_STREET_ADDRESS,Meters,ArealInterpolation,0,ArealInterpolationGeometricCentroid,Parcel,100,FeatureClassBased,ReturnAll,,AddressPoint,,,0,30.2918081,-81.509296,Exact
229,921 BEACON BEACH ROAD,TYNDALL AFB,AF,32403,7182,http://www.gulfcoast.edu/,GULF COAST STATE COLLEGE,850-283-4332,230,USCGeocoder,31,1,4.1,,80b11561-e25b-45d4-81eb-de5985647a8c,0,AddressPoint,Success,LOCATION_TYPE_STREET_ADDRESS,Meters,ArealInterpolation,0,ArealInterpolationGeometricCentroid,Parcel,100,FeatureClassBased,ReturnAll,,AddressPoint,,,0,30.0758711,-85.6057338,Exact
230,1780 W. 49 STREET ROOM 1220-01,HIALEAH,FL,33012,9628,http://www.mdc.edu/main/testing,MIAMI DADE COLLEGE - HIALEAH CAMPUS,305) 237-8759,231,USCGeocoder,161,1,4.1,,db1e1581-a35c-4bcd-a9b8-1ccf791bac01,2,Parcel,Success,LOCATION_TYPE_STREET_ADDRESS,Meters,ArealInterpolation,6652.773665905,ArealInterpolationGeometricCentroid,Parcel,100,FeatureClassBased,ReturnAll,,ExactParcelCentroidPoint,,,0,25.8646667635118,-80.3187463991867,Exact
231,"HOMESTEAD, FL   33030",305,,5198,9627,http://www.mdc.edu/homestead/,MIAMI DADE COLLEGE - HOMESTEAD CAMPUS,http://www.mdc.edu/main/testing,232,USCGeocoder,10,1,4.1,,1c7b2a75-b66c-4883-951f-a64fc9d5e04e,99,Unmatchable,Unmatchable,LOCATION_TYPE_UNKNOWN,Unknown,NotAttempted,-1,NotAttempted,Unmatchable,0,FeatureClassBased,ReturnAll,,Unmatchable,,,0,0,0,
232,"950 NW 20TH ST, TESTING, RM 1303",MIAMI,FL,33127,8731,http://www.mdc.edu/main/testing,MIAMI DADE COLLEGE - MEDICAL CAMPUS,305) 237-4275,233,USCGeocoder,96,1,4.1,,7118b4d0-70f1-4a4e-8806-dc8190b6e7df,0,AddressPoint,Success,LOCATION_TYPE_STREET_ADDRESS,Meters,ArealInterpolation,0,ArealInterpolationGeometricCentroid,Parcel,100,FeatureClassBased,ReturnAll,,AddressPoint,,,0,25.7946126,-80.2103891,Exact
233,"NORTH TESTING, 11380 NW 27TH AVENUE, ROOM 1160",MIAMI,FL,3418,9629,http://www.mdc.edu/north/,MIAMI DADE COLLEGE NORTH CAMPUS,305) 237-1015,234,USCGeocoder,15,1,4.1,,0915de5a-9305-4dd1-9229-9443881fdb28,11,CityCentroid,Success,LOCATION_TYPE_STREET_ADDRESS,Kilometers,ArealInterpolation,145.204,ArealInterpolationGeometricCentroid,City,100,FeatureClassBased,ReturnAll,,CityCentroid,,,0,25.7752563723416,-80.2088512058982,Exact
234,"3800 NW 115 AVENUE, ROOM 2110",MIAMI,FL,33178,8348,http://www.mdc.edu/main/testing,MIAMI DADE COLLEGE WEST CAMPUS,305) 237-8536,235,USCGeocoder,188,1,4.1,,43542935-801f-4b12-b4fb-e4df2212fb36,2,Parcel,Success,LOCATION_TYPE_STREET_ADDRESS,Meters,ArealInterpolation,39917.6403744221,ArealInterpolationGeometricCentroid,Parcel,99.7485207100592,FeatureClassBased,ReturnAll,,ExactParcelCentroidPoint,,,0,25.8084318224157,-80.3846450862819,Relaxed;Soundex
235,"300 NE 2ND AVENUE, ROOM 3104",MIAMI,FL,33132,9626,http://www.mdc.edu/main/testing,MIAMI DADE COLLEGE - WOLFSON CAMPUS,305) 237-3188,236,USCGeocoder,32,1,4.1,,582aaa12-2721-4ae8-b976-c7f6ca43341e,0,AddressPoint,Success,LOCATION_TYPE_STREET_ADDRESS,Meters,ArealInterpolation,0,ArealInterpolationGeometricCentroid,Parcel,100,FeatureClassBased,ReturnAll,,AddressPoint,,,0,25.7774765,-80.1906272,Exact
236,100 COLLEGE BLVD E.,NICEVILLE,FL,32578,7150,http://www.nwfsc.edu/,NORTHWEST FLORIDA STATE COLLEGE,850) 729-6016,237,USCGeocoder,82,1,4.1,,39cf37b9-815f-4f6e-a621-fb63585a4bf3,2,Parcel,Success,LOCATION_TYPE_STREET_ADDRESS,Meters,ArealInterpolation,489905.017394453,ArealInterpolationGeometricCentroid,Parcel,97.6331360946746,FeatureClassBased,ReturnAll,,ExactParcelCentroidPoint,,,0,30.5385863591247,-86.4734853063298,Relaxed
237,221 LUKASIK AVENUE,HURLBURT FIELD,FI,32544,7114,http://www.nwfsc.edu/,NORTHWEST FLORIDA STATE COLLEGE - HURLBURT AFB,850) 200-4190,238,USCGeocoder,151,1,4.1,,d5e2b8d8-c43a-4929-808c-770f827f54e1,9,AddressZIPCentroid,Success,LOCATION_TYPE_STREET_ADDRESS,Meters,ArealInterpolation,0,ArealInterpolationGeometricCentroid,USPSZip,100,FeatureClassBased,ReturnAll,,USPSZipAreaCentroid,,,0,30.421136,-86.695646,Exact
238,"TTC/COUS - STUDENT AFFAIRS BLDG., 2ND FL., 3301 COLLEGE AVENUE",FORT LAUDERDALE,LA,33314,9876,http://www.nova.edu/,NOVA SOUTHEASTERN UNIVERSITY,954-262-8373,239,USCGeocoder,6,1,4.1,,d198fc4e-c92e-4c52-af84-e0e67466c0a8,9,AddressZIPCentroid,Success,LOCATION_TYPE_STREET_ADDRESS,Meters,ArealInterpolation,0,ArealInterpolationGeometricCentroid,USPSZip,100,FeatureClassBased,ReturnAll,,USPSZipAreaCentroid,,,0,26.070011,-80.219723,Exact
